{
  "version": 0.6,
  "generator": "Overpass API 0.7.62.5 1bd436f1",
  "osm3s": {
    "timestamp_osm_base": "2025-05-10T05:44:53Z",
    "timestamp_areas_base": "2025-02-06T02:17:44Z",
    "copyright": "The data included in this document is from www.openstreetmap.org. The data is made available under ODbL."
  },
  "elements": [
    {
      "type": "node",
      "id": 532466814,
      "lat": 33.7797895,
      "lon": -84.3678804,
      "tags": {
        "addr:city": "Atlanta",
        "addr:housenumber": "931",
        "addr:postcode": "30308",
        "addr:state": "GA",
        "addr:street": "Monroe Drive Northeast",
        "branch": "Atlanta",
        "brand": "Trader Joe's",
        "brand:wikidata": "Q688825",
        "name": "Trader Joe's",
        "opening_hours": "Mo-Su 09:00-21:00",
        "phone": "+1 404-815-9210",
        "ref": "730",
        "shop": "supermarket",
        "source": "http://traderjoes.com/stores/index.asp",
        "website": "https://www.traderjoes.com/"
      }
    },
    {
      "type": "node",
      "id": 534028682,
      "lat": 33.7746524,
      "lon": -84.3657838,
      "tags": {
        "addr:suite": "500",
        "brand": "TJ Maxx",
        "brand:wikidata": "Q10860683",
        "name": "TJ Maxx",
        "shop": "department_store"
      }
    },
    {
      "type": "node",
      "id": 534028690,
      "lat": 33.7758867,
      "lon": -84.3660842,
      "tags": {
        "addr:city": "Atlanta",
        "addr:housenumber": "650",
        "addr:postcode": "30308",
        "addr:state": "GA",
        "addr:street": "Ponce De Leon Avenue Northeast",
        "brand": "PetSmart",
        "brand:wikidata": "Q3307147",
        "name": "PetSmart",
        "opening_hours": "Mo-Sa 09:00-21:00; Su 10:00-19:00",
        "phone": "+1 404-872-2363",
        "ref": "0275",
        "shop": "pet",
        "website": "stores.petsmart.com/result-details.php?store=275"
      }
    },
    {
      "type": "node",
      "id": 534028692,
      "lat": 33.7755442,
      "lon": -84.3660241,
      "tags": {
        "addr:city": "Atlanta",
        "addr:housenumber": "650",
        "addr:postcode": "30308",
        "addr:state": "GA",
        "addr:street": "Ponce De Leon Avenue",
        "brand": "Staples",
        "brand:wikidata": "Q785943",
        "name": "Staples",
        "opening_hours": "Mo-Fr 08:00-21:00; Sa 09:00-21:00; Su 10:00-18:00",
        "shop": "stationery",
        "website": "stores.staples-locator.com/staples/advantage.adp?recordId=1005"
      }
    },
    {
      "type": "node",
      "id": 534028705,
      "lat": 33.7739105,
      "lon": -84.3643413,
      "tags": {
        "addr:city": "Atlanta",
        "addr:housenumber": "716",
        "addr:postcode": "30306",
        "addr:state": "GA",
        "addr:street": "Ponce de Leon Place Northeast",
        "name": "Paris on Ponce",
        "phone": "+1 (404) 249-9965",
        "shop": "clothes",
        "source": "local_knowledge",
        "website": "https://parisonponce.com/"
      }
    },
    {
      "type": "node",
      "id": 534407883,
      "lat": 33.7583578,
      "lon": -84.3905189,
      "tags": {
        "name": "Sole",
        "shop": "shoes"
      }
    },
    {
      "type": "node",
      "id": 534407954,
      "lat": 33.7579867,
      "lon": -84.3901327,
      "tags": {
        "name": "New Era Store",
        "shop": "clothes",
        "website": "https://www.neweracap.com/"
      }
    },
    {
      "type": "node",
      "id": 534407955,
      "lat": 33.7578228,
      "lon": -84.3899486,
      "tags": {
        "addr:city": "Atlanta",
        "addr:country": "US",
        "addr:housenumber": "111",
        "addr:postcode": "30303",
        "addr:street": "Luckie Street Northwest",
        "name": "Downtown Deli",
        "shop": "deli"
      }
    },
    {
      "type": "node",
      "id": 535031245,
      "lat": 33.7766834,
      "lon": -84.3896398,
      "tags": {
        "brand": "Great Clips",
        "brand:wikidata": "Q5598967",
        "name": "Great Clips",
        "opening_hours": "Mo-Fr 09:00-21:00; Sa 09:00-18:00; Su 12:00-17:00",
        "phone": "+1-404-881-8200",
        "shop": "hairdresser",
        "wheelchair": "yes"
      }
    },
    {
      "type": "node",
      "id": 535031247,
      "lat": 33.7766782,
      "lon": -84.3892668,
      "tags": {
        "name": "Nail Talk and Tan",
        "name_1": "Jazzy Nails",
        "opening_hours": "Mo-Sa 10:00-19:00",
        "phone": "+1-404-817-9326",
        "shop": "beauty",
        "wheelchair": "yes"
      }
    },
    {
      "type": "node",
      "id": 535031278,
      "lat": 33.7770131,
      "lon": -84.3900992,
      "tags": {
        "amenity": "restaurant",
        "cuisine": "greek",
        "name": "Gyro Bros",
        "shop": "ice_cream"
      }
    },
    {
      "type": "node",
      "id": 567065886,
      "lat": 33.7926321,
      "lon": -84.3516536,
      "tags": {
        "name": "Movies Worth Seeing",
        "shop": "video",
        "website": "moviesworthseeing.com"
      }
    },
    {
      "type": "node",
      "id": 568038117,
      "lat": 33.7647556,
      "lon": -84.3334739,
      "tags": {
        "addr:housenumber": "1651",
        "name": "Donna Van Gogh's",
        "shop": "gift"
      }
    },
    {
      "type": "node",
      "id": 568038118,
      "lat": 33.7647556,
      "lon": -84.3335426,
      "tags": {
        "addr:housenumber": "1647",
        "name": "Kelly's Closet",
        "shop": "clothes",
        "website": "KellysCloset.net"
      }
    },
    {
      "type": "node",
      "id": 568038120,
      "lat": 33.7647556,
      "lon": -84.3336971,
      "tags": {
        "name": "Sweetgrass Too",
        "shop": "hairdresser",
        "website": "sweetgrassspa.com"
      }
    },
    {
      "type": "node",
      "id": 568038131,
      "lat": 33.7647485,
      "lon": -84.3333194,
      "tags": {
        "addr:housenumber": "1653B",
        "shop": "art",
        "website": "https://mooggallery.com/"
      }
    },
    {
      "type": "node",
      "id": 568038134,
      "lat": 33.7647485,
      "lon": -84.3333881,
      "tags": {
        "name": "Full Moon Records",
        "shop": "music"
      }
    },
    {
      "type": "node",
      "id": 568038139,
      "lat": 33.7624794,
      "lon": -84.3338859,
      "tags": {
        "addr:housenumber": "1642",
        "name": "Salon Red",
        "shop": "hairdresser",
        "website": "https://salonred.com/"
      }
    },
    {
      "type": "node",
      "id": 568038141,
      "lat": 33.7649696,
      "lon": -84.3335683,
      "tags": {
        "addr:city": "Atlanta",
        "addr:housenumber": "1642",
        "addr:postcode": "30312",
        "addr:state": "GA",
        "addr:street": "McLendon Avenue Northeast",
        "name": "Candler Park Market",
        "phone": "4043739787",
        "shop": "convenience",
        "website": "https://www.candlerparkmarket.com/"
      }
    },
    {
      "type": "node",
      "id": 568038142,
      "lat": 33.7649126,
      "lon": -84.3333709,
      "tags": {
        "addr:city": "Atlanta",
        "addr:housenumber": "1654",
        "addr:postcode": "30307",
        "addr:street": "McLendon Avenue Northeast",
        "name": "Piercing Experience",
        "opening_hours": "Su 12:00-18:00; Mo 11:00-20:00; We,Th 11:00-20:00; Fr-Sa 12:00-21:00",
        "phone": "+1 404 378 9100",
        "shop": "piercing",
        "url": "piercing.org/pe",
        "website": "https://piercingexp.com/",
        "wheelchair": "yes"
      }
    },
    {
      "type": "node",
      "id": 760929140,
      "lat": 33.7927085,
      "lon": -84.3978483,
      "tags": {
        "addr:city": "Atlanta",
        "addr:housenumber": "1380",
        "addr:postcode": "30363",
        "addr:state": "GA",
        "addr:street": "Atlantic Drive Northwest",
        "addr:unit": "14135",
        "branch": "In Atlantic Station",
        "brand": "Publix",
        "brand:wikidata": "Q672170",
        "name": "Publix",
        "opening_hours": "Mo-Su 07:00-22:00",
        "phone": "+1 404-873-5055",
        "ref": "1010",
        "shop": "supermarket",
        "website": "https://www.publix.com/locations/1010",
        "wheelchair": "yes"
      }
    },
    {
      "type": "node",
      "id": 779212218,
      "lat": 33.8209249,
      "lon": -84.3865436,
      "tags": {
        "addr:city": "Atlanta",
        "addr:housenumber": "2365",
        "addr:postcode": "30305-4147",
        "addr:state": "GA",
        "addr:street": "Peachtree Road Northeast",
        "branch": "Peachtree Battle Shopping Center",
        "brand": "Publix",
        "brand:wikidata": "Q672170",
        "name": "Publix",
        "opening_hours": "Mo-Su 07:00-22:00",
        "phone": "+1 404-869-6556",
        "ref": "719",
        "shop": "supermarket",
        "website": "https://www.publix.com/locations/719",
        "wheelchair": "yes"
      }
    },
    {
      "type": "node",
      "id": 1088617005,
      "lat": 33.7595421,
      "lon": -84.3505635,
      "tags": {
        "addr:housenumber": "208",
        "addr:street": "Haralson Avenue NE",
        "name": "A Capella Books",
        "shop": "books",
        "website": "https://www.acappellabooks.com/"
      }
    },
    {
      "type": "node",
      "id": 1127215859,
      "lat": 33.7556502,
      "lon": -84.3811165,
      "tags": {
        "name": "Silver Moon Barber",
        "shop": "hairdresser"
      }
    },
    {
      "type": "node",
      "id": 1127215860,
      "lat": 33.7558155,
      "lon": -84.3799353,
      "tags": {
        "name": "Yanise Monet",
        "shop": "hairdresser"
      }
    },
    {
      "type": "node",
      "id": 1127215870,
      "lat": 33.7556461,
      "lon": -84.3798093,
      "tags": {
        "name": "Sweet Auburn Bread",
        "shop": "bakery"
      }
    },
    {
      "type": "node",
      "id": 1127215873,
      "lat": 33.7556503,
      "lon": -84.3811971,
      "tags": {
        "name": "Sweet Auburn Grocery",
        "shop": "convenience"
      }
    },
    {
      "type": "node",
      "id": 1127215875,
      "lat": 33.7556457,
      "lon": -84.3800641,
      "tags": {
        "name": "Controversy Boutique",
        "shop": "clothes"
      }
    },
    {
      "type": "node",
      "id": 1135600636,
      "lat": 33.7475687,
      "lon": -84.2915781,
      "tags": {
        "shop": "convenience"
      }
    },
    {
      "type": "node",
      "id": 1139929639,
      "lat": 33.7556551,
      "lon": -84.3796994,
      "tags": {
        "beauty": "nails",
        "name": "Chocolate Nail Shop",
        "shop": "beauty"
      }
    },
    {
      "type": "node",
      "id": 1139929663,
      "lat": 33.7557286,
      "lon": -84.3801017,
      "tags": {
        "name": "Sequential Health",
        "shop": "insurance"
      }
    },
    {
      "type": "node",
      "id": 1142110692,
      "lat": 33.7395348,
      "lon": -84.3092912,
      "tags": {
        "brand": "BP Shop",
        "brand:wikidata": "Q152057",
        "name": "BP",
        "shop": "convenience"
      }
    },
    {
      "type": "node",
      "id": 1165370728,
      "lat": 33.7647575,
      "lon": -84.3418708,
      "tags": {
        "addr:housenumber": "1395",
        "addr:postcode": "30307",
        "addr:street": "McLendon Avenue",
        "name": "Candler Park Flower Mart",
        "opening_hours": "Mo-Sa 10:00-14:00",
        "shop": "florist",
        "website": "https://www.candlerparkflowers.com/"
      }
    },
    {
      "type": "node",
      "id": 1179861852,
      "lat": 33.7557832,
      "lon": -84.376726,
      "tags": {
        "name": "C J Walkers Beauty Shoppe & Museum",
        "shop": "hairdresser",
        "tourism": "museum",
        "website": "https://www.madamecjwalkermuseum.com/"
      }
    },
    {
      "type": "node",
      "id": 1179861860,
      "lat": 33.75573,
      "lon": -84.3751157,
      "tags": {
        "name": "Burden's Barber Shop",
        "shop": "hairdresser"
      }
    },
    {
      "type": "node",
      "id": 1237654285,
      "lat": 33.7659279,
      "lon": -84.349195,
      "tags": {
        "name": "Bill Hallman Flaunt",
        "shop": "clothes"
      }
    },
    {
      "type": "node",
      "id": 1237654286,
      "lat": 33.7661399,
      "lon": -84.3491836,
      "tags": {
        "music": "vinyl",
        "name": "Wax n' Facts",
        "shop": "music"
      }
    },
    {
      "type": "node",
      "id": 1237654287,
      "lat": 33.7660552,
      "lon": -84.349189,
      "tags": {
        "name": "Psycho Sisters Consignment Boutique",
        "shop": "clothes"
      }
    },
    {
      "type": "node",
      "id": 1237654289,
      "lat": 33.765754,
      "lon": -84.3494096,
      "tags": {
        "clothes": "vintage",
        "name": "Fearless Weirdos",
        "shop": "clothes"
      }
    },
    {
      "type": "node",
      "id": 1237654291,
      "lat": 33.7658142,
      "lon": -84.349187,
      "tags": {
        "clothes": "vintage",
        "name": "Clothing Warehouse",
        "shop": "clothes"
      }
    },
    {
      "type": "node",
      "id": 1237714048,
      "lat": 33.7652949,
      "lon": -84.3495111,
      "tags": {
        "name": "Holy Mother Tattoo",
        "shop": "tattoo"
      }
    },
    {
      "type": "node",
      "id": 1237714059,
      "lat": 33.7654154,
      "lon": -84.3493448,
      "tags": {
        "addr:housenumber": "1168",
        "name": "Crystal Blue",
        "shop": "new_age"
      }
    },
    {
      "type": "node",
      "id": 1237714064,
      "lat": 33.7677324,
      "lon": -84.3493412,
      "tags": {
        "addr:city": "Atlanta",
        "addr:housenumber": "484",
        "addr:postcode": "30307",
        "addr:state": "GA",
        "addr:street": "Moreland Avenue Northeast",
        "email": "info@outback-bikes.com",
        "name": "Outback Bikes",
        "opening_hours": "Tu-Fr 11:00-18:00, Sa 10:00-18:00, Su 12:00-18:00",
        "phone": "+1 404-688-4878",
        "repair": "yes",
        "second_hand": "yes",
        "service:bicycle:accessories": "yes",
        "service:bicycle:rental": "yes",
        "service:bicycle:repair": "yes",
        "service:bicycle:sales": "yes",
        "shop": "bicycle",
        "website": "https://www.outback-bikes.com/"
      }
    },
    {
      "type": "node",
      "id": 1237714066,
      "lat": 33.7676695,
      "lon": -84.3493419,
      "tags": {
        "check_date": "2024-01-22",
        "name": "Ansley Eyecare",
        "shop": "optician"
      }
    },
    {
      "type": "node",
      "id": 1237714072,
      "lat": 33.7653259,
      "lon": -84.3494686,
      "tags": {
        "clothes": "vintage",
        "name": "Stephan's Inc Vintage Clothing",
        "shop": "clothes"
      }
    },
    {
      "type": "node",
      "id": 1237714073,
      "lat": 33.7668645,
      "lon": -84.3493902,
      "tags": {
        "name": "Junkmans Daughter",
        "shop": "variety_store"
      }
    },
    {
      "type": "node",
      "id": 1237714076,
      "lat": 33.7669471,
      "lon": -84.3493904,
      "tags": {
        "addr:city": "Atlanta",
        "addr:housenumber": "466",
        "addr:postcode": "30307",
        "addr:state": "GA",
        "addr:street": "Moreland Avenue Northeast",
        "contact:instagram": "stratosphereskateboards",
        "name": "Stratosphere Skateboards",
        "opening_hours": "Su,Mo 12:00-17:00; Tu-Sa 11:00-19:00",
        "phone": "+1-404-521-3510",
        "shop": "sports",
        "sport": "skateboard",
        "start_date": "1986",
        "website": "https://www.stratosphereskateboards.com"
      }
    },
    {
      "type": "node",
      "id": 1237714085,
      "lat": 33.765353,
      "lon": -84.3494226,
      "tags": {
        "name": "Raine",
        "shop": "shoes"
      }
    },
    {
      "type": "node",
      "id": 1237972379,
      "lat": 33.7649492,
      "lon": -84.3499615,
      "tags": {
        "name": "Rene Rene",
        "shop": "clothes"
      }
    },
    {
      "type": "node",
      "id": 1237972382,
      "lat": 33.7651342,
      "lon": -84.3497093,
      "tags": {
        "addr:city": "Atlanta",
        "addr:housenumber": "1160",
        "addr:postcode": "30307",
        "addr:state": "GA",
        "addr:street": "Euclid Avenue Northeast",
        "clothes": "custom_tshirt",
        "name": "Bang On Custom T-shirts and Lettering",
        "shop": "clothes"
      }
    },
    {
      "type": "node",
      "id": 1237972383,
      "lat": 33.7651098,
      "lon": -84.3497442,
      "tags": {
        "name": "Kloud 9",
        "shop": "headshop"
      }
    },
    {
      "type": "node",
      "id": 1237972385,
      "lat": 33.7650072,
      "lon": -84.3498864,
      "tags": {
        "name": "Kolo",
        "shop": "piercing"
      }
    },
    {
      "type": "node",
      "id": 1237972387,
      "lat": 33.7651989,
      "lon": -84.3496289,
      "tags": {
        "addr:city": "Atlanta",
        "addr:housenumber": "1152",
        "addr:postcode": "30307",
        "addr:state": "GA",
        "addr:street": "Euclid Avenue Northeast",
        "clothes": "african_import",
        "name": "Cultural Accents",
        "shop": "clothes"
      }
    },
    {
      "type": "node",
      "id": 1237972388,
      "lat": 33.7650429,
      "lon": -84.3498542,
      "tags": {
        "name": "Gurl Props",
        "shop": "clothes"
      }
    },
    {
      "type": "node",
      "id": 1237972389,
      "lat": 33.7651789,
      "lon": -84.3496774,
      "tags": {
        "books": "comics/graphic novels",
        "music": "new/used",
        "name": "Criminal Records",
        "shop": "music"
      }
    },
    {
      "type": "node",
      "id": 1237985313,
      "lat": 33.7644744,
      "lon": -84.3506135,
      "tags": {
        "clothes": "men",
        "name": "Vinnies Styles",
        "shop": "clothes",
        "website": "www.vinniesstyles.com"
      }
    },
    {
      "type": "node",
      "id": 1237985317,
      "lat": 33.7632324,
      "lon": -84.3516435,
      "tags": {
        "name": "Da Phunlie Munkie Rasta Shop",
        "payment": "cash",
        "shop": "yes"
      }
    },
    {
      "type": "node",
      "id": 1237985319,
      "lat": 33.7647296,
      "lon": -84.3502728,
      "tags": {
        "addr:city": "Atlanta",
        "addr:housenumber": "1130",
        "addr:postcode": "30307",
        "addr:state": "GA",
        "addr:street": "Euclid Avenue Northeast",
        "name": "The Bazaar",
        "shop": "yes"
      }
    },
    {
      "type": "node",
      "id": 1237985320,
      "lat": 33.7645523,
      "lon": -84.3506374,
      "tags": {
        "name": "Tangles",
        "shop": "hairdresser"
      }
    },
    {
      "type": "node",
      "id": 1237985321,
      "lat": 33.7635022,
      "lon": -84.3514209,
      "tags": {
        "addr:city": "Atlanta",
        "addr:housenumber": "1087",
        "addr:postcode": "30307",
        "addr:state": "GA",
        "addr:street": "Euclid Avenue Northeast",
        "name": "Four Corners of the Earth Market Place",
        "shop": "mall"
      }
    },
    {
      "type": "node",
      "id": 1237999078,
      "lat": 33.7646549,
      "lon": -84.3499482,
      "tags": {
        "addr:city": "Atlanta",
        "addr:housenumber": "1139",
        "addr:postcode": "30307",
        "addr:state": "GA",
        "addr:street": "Euclid Avenue Northeast",
        "name": "Earth Tone",
        "shop": "yes"
      }
    },
    {
      "type": "node",
      "id": 1237999079,
      "lat": 33.764695,
      "lon": -84.3499053,
      "tags": {
        "shop": "wigs"
      }
    },
    {
      "type": "node",
      "id": 1237999086,
      "lat": 33.7639556,
      "lon": -84.3508679,
      "tags": {
        "name": "Sweet Potato Pie",
        "shop": "hairdresser"
      }
    },
    {
      "type": "node",
      "id": 1237999089,
      "lat": 33.7648047,
      "lon": -84.3497381,
      "tags": {
        "clothes": "evening attire",
        "name": "Karma Boutique",
        "shop": "clothes"
      }
    },
    {
      "type": "node",
      "id": 1237999091,
      "lat": 33.7640868,
      "lon": -84.3506849,
      "tags": {
        "addr:housenumber": "1111",
        "addr:street": "Euclid Avenue Northeast",
        "check_date": "2023-09-21",
        "clothes": "80% used 20% new",
        "name": "Rag-O-Rama",
        "opening_hours": "11:00-21:00",
        "payment:mastercard": "yes",
        "payment:visa": "yes",
        "phone": "+1 404-658-1988",
        "shop": "clothes",
        "website": "https://www.ragorama.com/",
        "wheelchair": "yes"
      }
    },
    {
      "type": "node",
      "id": 1237999093,
      "lat": 33.7645725,
      "lon": -84.350042,
      "tags": {
        "name": "Americam Apparel",
        "shop": "clothes"
      }
    },
    {
      "type": "node",
      "id": 1237999094,
      "lat": 33.7644653,
      "lon": -84.3501895,
      "tags": {
        "name": "Cherry Bomb",
        "shop": "clothes",
        "website": "http://www.cherrybombatlanta.com"
      }
    },
    {
      "type": "node",
      "id": 1237999098,
      "lat": 33.7645055,
      "lon": -84.3501251,
      "tags": {
        "music_genre": "acid jazz soul imports",
        "name": "Moods Music",
        "shop": "music"
      }
    },
    {
      "type": "node",
      "id": 1237999100,
      "lat": 33.7637965,
      "lon": -84.3510303,
      "tags": {
        "addr:housenumber": "1099",
        "addr:postcode": "30307",
        "addr:state": "GA",
        "addr:street": "Euclid Avenue Northeast",
        "addr:unit": "A",
        "amenity": "restaurant",
        "check_date": "2023-09-21",
        "cuisine": "turkish;mediterranean",
        "name": "Ali Baba Mediterranean",
        "payment:mastercard": "yes",
        "payment:visa": "yes",
        "phone": "+1 404-223-1445",
        "shop": "hookah bar"
      }
    },
    {
      "type": "node",
      "id": 1242178055,
      "lat": 33.8198693,
      "lon": -84.3669667,
      "tags": {
        "addr:housenumber": "2399",
        "addr:street": "Piedmont Road Northeast",
        "brand": "Pep Boys",
        "brand:wikidata": "Q3375007",
        "name": "Pep Boys",
        "shop": "car_repair",
        "website": "https://www.pepboys.com/"
      }
    },
    {
      "type": "node",
      "id": 1242241341,
      "lat": 33.8225437,
      "lon": -84.3669604,
      "tags": {
        "addr:housenumber": "2459",
        "addr:street": "Piedmont Road Northeast",
        "name": "Splash",
        "shop": "laundry"
      }
    },
    {
      "type": "node",
      "id": 1242244147,
      "lat": 33.8227088,
      "lon": -84.3701093,
      "tags": {
        "addr:housenumber": "520",
        "addr:street": "Main Street Northeast",
        "name": "71 Barber Shop",
        "shop": "hairdresser",
        "website": "71barbershop.com"
      }
    },
    {
      "type": "node",
      "id": 1242247744,
      "lat": 33.8223388,
      "lon": -84.3670035,
      "tags": {
        "name": "Fiesta Food Market",
        "shop": "convenience"
      }
    },
    {
      "type": "node",
      "id": 1249461116,
      "lat": 33.7546359,
      "lon": -84.3840274,
      "tags": {
        "shop": "books"
      }
    },
    {
      "type": "node",
      "id": 1253884665,
      "lat": 33.7405084,
      "lon": -84.3460577,
      "tags": {
        "addr:housenumber": "493B",
        "addr:postcode": "30316",
        "addr:street": "Flat Shoals Avenue Southeast",
        "name": "Feed Your Head Music",
        "shop": "music"
      }
    },
    {
      "type": "node",
      "id": 1253884681,
      "lat": 33.7405809,
      "lon": -84.3460952,
      "tags": {
        "addr:housenumber": "493",
        "addr:postcode": "30316",
        "addr:street": "Flat Shoals Avenue Southeast",
        "name": "Adore Mi",
        "shop": "clothes"
      }
    },
    {
      "type": "node",
      "id": 1253884687,
      "lat": 33.7405463,
      "lon": -84.3460764,
      "tags": {
        "addr:housenumber": "493A",
        "addr:postcode": "30316",
        "addr:street": "Flat Shoals Avenue Southeast",
        "name": "i kandie",
        "shop": "clothes"
      }
    },
    {
      "type": "node",
      "id": 1253884690,
      "lat": 33.7409366,
      "lon": -84.3464331,
      "tags": {
        "addr:housenumber": "479A",
        "addr:postcode": "30316",
        "addr:street": "Flat Shoals Avenue Southeast",
        "name": "Park Pet Supply",
        "shop": "pet",
        "website": "https://www.parkpetsupply.com/"
      }
    },
    {
      "type": "node",
      "id": 1253884701,
      "lat": 33.7406177,
      "lon": -84.346114,
      "tags": {
        "addr:housenumber": "491",
        "addr:postcode": "30316",
        "addr:street": "Flat Shoals Avenue Southeast",
        "name": "House of Bling",
        "shop": "clothes"
      }
    },
    {
      "type": "node",
      "id": 1253884710,
      "lat": 33.7423551,
      "lon": -84.3479942,
      "tags": {
        "addr:housenumber": "419",
        "addr:postcode": "30316",
        "addr:street": "Flat Shoals Avenue Southeast",
        "name": "Meadows Mortuary",
        "shop": "funeral_directors",
        "website": "https://meadowsmortuary.com/"
      }
    },
    {
      "type": "node",
      "id": 1253884727,
      "lat": 33.7410426,
      "lon": -84.3465499,
      "tags": {
        "name": "Eyebrow Threading Studio",
        "shop": "hairdresser"
      }
    },
    {
      "type": "node",
      "id": 1253884736,
      "lat": 33.7409154,
      "lon": -84.3464103,
      "tags": {
        "addr:housenumber": "481A",
        "addr:postcode": "30316",
        "addr:street": "Flat Shoals Avenue Southeast",
        "name": "Fur Side Pet Grooming",
        "shop": "pet",
        "website": "http://www.fursidepetgrooming.com/"
      }
    },
    {
      "type": "node",
      "id": 1253884738,
      "lat": 33.7410158,
      "lon": -84.3465189,
      "tags": {
        "name": "East Atlanta Florist",
        "shop": "florist"
      }
    },
    {
      "type": "node",
      "id": 1253884744,
      "lat": 33.7408407,
      "lon": -84.3463298,
      "tags": {
        "addr:housenumber": "489B",
        "addr:postcode": "30316",
        "addr:street": "Flat Shoals Avenue Southeast",
        "name": "Kaboodle",
        "shop": "furniture"
      }
    },
    {
      "type": "node",
      "id": 1253884748,
      "lat": 33.7404738,
      "lon": -84.3459316,
      "tags": {
        "addr:housenumber": "495",
        "addr:postcode": "30316",
        "addr:street": "Flat Shoals Avenue Southeast",
        "name": "Rockstar Gold",
        "shop": "clothes"
      }
    },
    {
      "type": "node",
      "id": 1253900315,
      "lat": 33.7398589,
      "lon": -84.3448496,
      "tags": {
        "name": "The Hairspot",
        "shop": "hairdresser"
      }
    },
    {
      "type": "node",
      "id": 1259072900,
      "lat": 33.8080642,
      "lon": -84.4124587,
      "tags": {
        "addr:housenumber": "1953",
        "addr:postcode": "30318",
        "addr:street": "Howell Mill Road Northwest",
        "name": "Texaco Xpress Lube",
        "shop": "car_repair",
        "website": "http://www.texacoxpresslube.com/"
      }
    },
    {
      "type": "node",
      "id": 1259072906,
      "lat": 33.8083918,
      "lon": -84.4121476,
      "tags": {
        "addr:housenumber": "1961",
        "addr:postcode": "30318",
        "addr:street": "Howell Mill Road Northwest",
        "name": "West Barber Shop",
        "shop": "hairdresser",
        "website": "https://westbarbershop.com/"
      }
    },
    {
      "type": "node",
      "id": 1259072907,
      "lat": 33.8091964,
      "lon": -84.4137971,
      "tags": {
        "addr:housenumber": "784",
        "addr:postcode": "30318",
        "addr:street": "Collier Road NW",
        "name": "Capital City Liquor Store",
        "shop": "alcohol"
      }
    },
    {
      "type": "node",
      "id": 1259072908,
      "lat": 33.8088688,
      "lon": -84.4125982,
      "tags": {
        "addr:housenumber": "1985",
        "addr:postcode": "30318",
        "addr:street": "Howell Mill Road Northwest",
        "name": "Blu Orchid",
        "shop": "clothes"
      }
    },
    {
      "type": "node",
      "id": 1259091114,
      "lat": 33.8018104,
      "lon": -84.4125016,
      "tags": {
        "addr:city": "Atlanta",
        "addr:housenumber": "1715",
        "addr:postcode": "30318",
        "addr:state": "GA",
        "addr:street": "Howell Mill Road Northwest",
        "branch": "Howell Mill Square",
        "brand": "Kroger",
        "brand:wikidata": "Q153417",
        "name": "Kroger",
        "opening_hours": "Mo-Su 06:00-23:00",
        "phone": "+1 404-355-7889",
        "ref": "01100346",
        "shop": "supermarket",
        "website": "https://www.kroger.com/stores/grocery/ga/atlanta/howell-mill-square/011/00346"
      }
    },
    {
      "type": "node",
      "id": 1259091135,
      "lat": 33.8070479,
      "lon": -84.4123916,
      "tags": {
        "addr:housenumber": "1921",
        "addr:postcode": "30318",
        "addr:street": "Howell Mill Road Northwest",
        "name": "DW Campbell of Atlanta",
        "shop": "car_repair"
      }
    },
    {
      "type": "node",
      "id": 1259091142,
      "lat": 33.802956,
      "lon": -84.4151302,
      "tags": {
        "addr:housenumber": "1776",
        "addr:postcode": "30318",
        "addr:street": "Howell Mill Road Northwest",
        "brand": "Firestone",
        "brand:wikidata": "Q420837",
        "name": "Downtown Connector",
        "official_name": "Firestone Complete Auto Care",
        "shop": "car_repair"
      }
    },
    {
      "type": "node",
      "id": 1259091146,
      "lat": 33.80737,
      "lon": -84.4124238,
      "tags": {
        "name": "Coin Laundry",
        "shop": "laundry"
      }
    },
    {
      "type": "node",
      "id": 1259091158,
      "lat": 33.8015518,
      "lon": -84.4158651,
      "tags": {
        "addr:housenumber": "1742",
        "addr:postcode": "30318",
        "addr:street": "Howell Mill Road Northwest",
        "fixme": "Please re-add proper opening hours using the syntax documented under Key:opening_hours in the wiki. \"business hours\" is too vague.",
        "name": "tiresouth.com",
        "operator": "tiresouth.com",
        "shop": "tyres"
      }
    },
    {
      "type": "node",
      "id": 1259638879,
      "lat": 33.8103056,
      "lon": -84.4162924,
      "tags": {
        "brand": "Great Clips",
        "brand:wikidata": "Q5598967",
        "female": "yes",
        "male": "yes",
        "name": "Great Clips",
        "shop": "hairdresser"
      }
    },
    {
      "type": "node",
      "id": 1259638889,
      "lat": 33.8101384,
      "lon": -84.4137201,
      "tags": {
        "addr:city": "Atlanta",
        "addr:housenumber": "2020",
        "addr:postcode": "30318",
        "addr:state": "GA",
        "addr:street": "Howell Mill Road Northwest",
        "amenity": "post_office",
        "brand": "The UPS Store",
        "brand:wikidata": "Q7771029",
        "name": "The UPS Store",
        "shop": "copyshop",
        "short_name": "UPS"
      }
    },
    {
      "type": "node",
      "id": 1259648321,
      "lat": 33.8103,
      "lon": -84.4158887,
      "tags": {
        "name": "Maui Tan Atlanta",
        "shop": "hairdresser"
      }
    },
    {
      "type": "node",
      "id": 1273536528,
      "lat": 33.8473556,
      "lon": -84.4281164,
      "tags": {
        "shop": "hairdresser"
      }
    },
    {
      "type": "node",
      "id": 1273536542,
      "lat": 33.8483406,
      "lon": -84.4279835,
      "tags": {
        "addr:city": "Atlanta",
        "addr:housenumber": "1250",
        "addr:postcode": "30327",
        "addr:state": "GA",
        "addr:street": "West Paces Ferry Road Northwest",
        "branch": "West Paces Ferry",
        "brand": "Publix",
        "brand:wikidata": "Q672170",
        "check_date": "2024-08-15",
        "name": "Publix",
        "opening_hours": "07:00-22:00",
        "payment:cash": "yes",
        "payment:credit_cards": "yes",
        "payment:debit_cards": "yes",
        "phone": "+1 404-848-1610",
        "ref": "720",
        "shop": "supermarket",
        "website": "https://www.publix.com/locations/720-west-paces-ferry",
        "wheelchair": "yes"
      }
    },
    {
      "type": "node",
      "id": 1291285062,
      "lat": 33.7793621,
      "lon": -84.3696787,
      "tags": {
        "name": "SIg Samuel's Dry Cleaning Company",
        "shop": "laundry"
      }
    },
    {
      "type": "node",
      "id": 1387057752,
      "lat": 33.76346,
      "lon": -84.358494,
      "tags": {
        "addr:housenumber": "331",
        "addr:postcode": "30307",
        "addr:street": "Elizabeth Street Northeast",
        "addr:suite": "D",
        "name": "Star Salon",
        "shop": "hairdresser"
      }
    },
    {
      "type": "node",
      "id": 1387058173,
      "lat": 33.7633214,
      "lon": -84.3580319,
      "tags": {
        "addr:housenumber": "312",
        "addr:postcode": "30307",
        "addr:street": "North Highland Avenue Northeast",
        "addr:suite": "C",
        "name": "K Chocolat",
        "shop": "confectionery",
        "website": "https://www.cacaoatlanta.com/"
      }
    },
    {
      "type": "node",
      "id": 1387064914,
      "lat": 33.7585943,
      "lon": -84.348449,
      "tags": {
        "shop": "hairdresser"
      }
    },
    {
      "type": "node",
      "id": 1387064918,
      "lat": 33.7582975,
      "lon": -84.3480544,
      "tags": {
        "shop": "hairdresser"
      }
    },
    {
      "type": "node",
      "id": 1387067511,
      "lat": 33.7622024,
      "lon": -84.3487683,
      "tags": {
        "name": "Sherwin-Williams",
        "shop": "doityourself"
      }
    },
    {
      "type": "node",
      "id": 1390245440,
      "lat": 33.756641,
      "lon": -84.348881,
      "tags": {
        "brand": "Sprint",
        "brand:wikidata": "Q301965",
        "name": "Sprint",
        "shop": "mobile_phone",
        "source": "Local_knowledge"
      }
    },
    {
      "type": "node",
      "id": 1390245442,
      "lat": 33.7568013,
      "lon": -84.3488275,
      "tags": {
        "brand": "The Vitamin Shoppe",
        "brand:wikidata": "Q7772938",
        "name": "The Vitamin Shoppe",
        "shop": "nutrition_supplements"
      }
    },
    {
      "type": "node",
      "id": 1572946969,
      "lat": 33.7100678,
      "lon": -84.4237928,
      "tags": {
        "shop": "convenience"
      }
    },
    {
      "type": "node",
      "id": 1595736805,
      "lat": 33.7844604,
      "lon": -84.3790756,
      "tags": {
        "name": "Skate Escape",
        "shop": "bicycle"
      }
    },
    {
      "type": "node",
      "id": 1717156397,
      "lat": 33.8140715,
      "lon": -84.3903596,
      "tags": {
        "addr:housenumber": "2221",
        "addr:postcode": "30309",
        "addr:street": "Peachtree Road Northeast",
        "designation": "Auto Glass Shop",
        "name": "Location Closed",
        "shop": "car_repair",
        "source": "Bing",
        "website": "autoglassatlanta.net"
      }
    },
    {
      "type": "node",
      "id": 1719283004,
      "lat": 33.7810881,
      "lon": -84.3895626,
      "tags": {
        "addr:postcode": "30309",
        "brand": "Chevron",
        "brand:wikidata": "Q319642",
        "name": "Chevron",
        "opening_hours": "24/7",
        "shop": "convenience",
        "wheelchair": "yes"
      }
    },
    {
      "type": "node",
      "id": 1748935972,
      "lat": 33.7420573,
      "lon": -84.3675392,
      "tags": {
        "addr:housenumber": "448",
        "addr:postcode": "30312",
        "addr:street": "Boulevard SE",
        "branch": "Fuel Station",
        "brand": "BP Shop",
        "brand:wikidata": "Q152057",
        "name": "BP Shop",
        "shop": "convenience"
      }
    },
    {
      "type": "node",
      "id": 1748938109,
      "lat": 33.7389927,
      "lon": -84.3680114,
      "tags": {
        "shop": "convenience"
      }
    },
    {
      "type": "node",
      "id": 1907452776,
      "lat": 33.8102117,
      "lon": -84.4145863,
      "tags": {
        "addr:city": "Atlanta",
        "addr:housenumber": "2020",
        "addr:postcode": "30318-1732",
        "addr:state": "GA",
        "addr:street": "Howell Mill Road Northwest",
        "addr:unit": "A",
        "branch": "Howell Mill Village",
        "brand": "Publix",
        "brand:wikidata": "Q672170",
        "name": "Publix",
        "opening_hours": "Mo-Su 07:00-22:00",
        "phone": "+1 404-609-7840",
        "ref": "1119",
        "shop": "supermarket",
        "website": "https://www.publix.com/locations/1119"
      }
    },
    {
      "type": "node",
      "id": 1923227121,
      "lat": 33.7751411,
      "lon": -84.3658985,
      "tags": {
        "addr:city": "Atlanta",
        "addr:housenumber": "650",
        "addr:postcode": "30308",
        "addr:state": "GA",
        "addr:street": "Ponce de Leon Avenue Northeast",
        "branch": "Ponce de Leon",
        "brand": "Whole Foods Market",
        "brand:wikidata": "Q1809448",
        "check_date": "2024-10-03",
        "check_date:opening_hours": "2024-10-03",
        "name": "Whole Foods Market",
        "opening_hours": "Mo-Su 07:00-22:00",
        "phone": "+1 404-853-1681",
        "ref": "poncedeleon",
        "shop": "supermarket",
        "website": "https://www.wholefoodsmarket.com/stores/poncedeleon",
        "wheelchair": "yes"
      }
    },
    {
      "type": "node",
      "id": 2030686285,
      "lat": 33.7871341,
      "lon": -84.4126599,
      "tags": {
        "addr:city": "Atlanta",
        "addr:housenumber": "1198",
        "addr:state": "GA",
        "addr:street": "Howell Mill Road",
        "name": "Ann Mashburn",
        "shop": "clothes"
      }
    },
    {
      "type": "node",
      "id": 2184455201,
      "lat": 33.7735268,
      "lon": -84.3628805,
      "tags": {
        "addr:floor": "G;1",
        "addr:housenumber": "737",
        "addr:street": "Ponce de Leon Avenue Northeast",
        "check_date": "2025-02-08",
        "level": "0;1",
        "name": "Green's Package Store",
        "opening_hours": "Mo-Th 09:00-23:00; Fr-Sa 09:00-23:30; Su 12:30-20:00",
        "payment:cash": "yes",
        "payment:credit_cards": "yes",
        "payment:debit_cards": "yes",
        "phone": "+1 404-872-1109",
        "shop": "alcohol",
        "source": "local_knowledge",
        "website": "https://greensbeverages.com/",
        "wheelchair": "yes"
      }
    },
    {
      "type": "node",
      "id": 2184811992,
      "lat": 33.7926253,
      "lon": -84.3528263,
      "tags": {
        "addr:city": "Atlanta",
        "addr:housenumber": "1394",
        "addr:postcode": "30306",
        "addr:state": "GA",
        "addr:street": "North Highland Avenue Northeast",
        "name": "Alon's",
        "shop": "bakery",
        "source": "local_knowledge"
      }
    },
    {
      "type": "node",
      "id": 2184838240,
      "lat": 33.7831201,
      "lon": -84.3542477,
      "tags": {
        "addr:housenumber": "1045",
        "addr:postcode": "30306",
        "addr:state": "GA",
        "name": "Highland Woodworking",
        "shop": "hardware"
      }
    },
    {
      "type": "node",
      "id": 2184844391,
      "lat": 33.7829461,
      "lon": -84.3542126,
      "tags": {
        "shop": "clothes",
        "source": "local_knowledge"
      }
    },
    {
      "type": "node",
      "id": 2184844411,
      "lat": 33.7829049,
      "lon": -84.3542103,
      "tags": {
        "shop": "clothes",
        "source": "local_knowledge"
      }
    },
    {
      "type": "node",
      "id": 2184856758,
      "lat": 33.7777539,
      "lon": -84.3529805,
      "tags": {
        "addr:city": "Atlanta",
        "addr:housenumber": "854",
        "addr:postcode": "30306-4507",
        "addr:state": "GA",
        "addr:street": "North Highland Avenue Northeast",
        "brand": "Ace Hardware",
        "brand:wikidata": "Q4672981",
        "name": "Intown Hardware",
        "opening_hours": "Mo-Fr 09:00-19:00; Sa 09:00-18:00; Su 10:00-18:00",
        "phone": "+1 404-874-5619",
        "ref": "10648",
        "shop": "doityourself",
        "source": "local_knowledge"
      }
    },
    {
      "type": "node",
      "id": 2184957536,
      "lat": 33.775858,
      "lon": -84.352712,
      "tags": {
        "addr:city": "Atlanta",
        "addr:housenumber": "778",
        "addr:postcode": "30306",
        "addr:street": "North Highland Avenue Northeast",
        "atm": "no",
        "internet_access": "wlan",
        "name": "VanMichael's",
        "shop": "hairdresser",
        "source": "local_knowledge",
        "wheelchair": "limited"
      }
    },
    {
      "type": "node",
      "id": 2184964315,
      "lat": 33.7759726,
      "lon": -84.3526788,
      "tags": {
        "name": "Glamour Paws",
        "shop": "pet",
        "source": "local_knowledge"
      }
    },
    {
      "type": "node",
      "id": 2184964335,
      "lat": 33.7757452,
      "lon": -84.3526962,
      "tags": {
        "addr:city": "Atlanta",
        "addr:housenumber": "776",
        "addr:postcode": "30306",
        "addr:state": "GA",
        "addr:street": "North Highland Avenue Northeast",
        "name": "Sweet Peach Waxing & Sugaring Studio",
        "opening_hours": "Mo-Fr 10:00-19:00; Sa 10:00-17:00; Su 12:00-17:00",
        "shop": "beauty",
        "source": "local_knowledge"
      }
    },
    {
      "type": "node",
      "id": 2209329525,
      "lat": 33.7611561,
      "lon": -84.3657219,
      "tags": {
        "name": "Highland Bakery",
        "shop": "bakery",
        "source": "local_knowledge"
      }
    },
    {
      "type": "node",
      "id": 2210363522,
      "lat": 33.7623224,
      "lon": -84.357816,
      "tags": {
        "shop": "convenience"
      }
    },
    {
      "type": "node",
      "id": 2211760867,
      "lat": 33.7834526,
      "lon": -84.3547401,
      "tags": {
        "brand": "Chico's",
        "brand:wikidata": "Q5096393",
        "name": "Chico's",
        "shop": "clothes",
        "source": "local_knowledge"
      }
    },
    {
      "type": "node",
      "id": 2211760880,
      "lat": 33.7827894,
      "lon": -84.354602,
      "tags": {
        "name": "Halfmoon Outfitter",
        "shop": "outdoor",
        "source": "local_knowledge"
      }
    },
    {
      "type": "node",
      "id": 2216957543,
      "lat": 33.7708054,
      "lon": -84.3517988,
      "tags": {
        "shop": "convenience"
      }
    },
    {
      "type": "node",
      "id": 2216957560,
      "lat": 33.7706494,
      "lon": -84.3523044,
      "tags": {
        "addr:postcode": "30307",
        "internet_access": "wlan",
        "name": "Midtown Cleaners & Laundry",
        "shop": "laundry"
      }
    },
    {
      "type": "node",
      "id": 2217156037,
      "lat": 33.7741379,
      "lon": -84.3590894,
      "tags": {
        "shop": "dry_cleaning",
        "source": "local_knowledge"
      }
    },
    {
      "type": "node",
      "id": 2217156040,
      "lat": 33.774508,
      "lon": -84.359025,
      "tags": {
        "shop": "convenience",
        "source": "local_knowledge"
      }
    },
    {
      "type": "node",
      "id": 2265073495,
      "lat": 33.7404562,
      "lon": -84.358365,
      "tags": {
        "addr:housenumber": "880",
        "addr:street": "Glenwood Avenue Southeast",
        "designation": "Wine Shop",
        "name": "3 Parks",
        "shop": "alcohol",
        "website": "https://3parkswine.com/"
      }
    },
    {
      "type": "node",
      "id": 2268953666,
      "lat": 33.758223,
      "lon": -84.3650178,
      "tags": {
        "addr:city": "Atlanta",
        "addr:housenumber": "151",
        "addr:postcode": "30312",
        "addr:state": "GA",
        "addr:street": "Sampson Street Northeast",
        "name": "Atlanta Bicycle Barn",
        "opening_hours": "Tu-Su 10:00-18:00",
        "service:bicycle:pump": "yes",
        "service:bicycle:repair": "yes",
        "service:bicycle:retail": "yes",
        "shop": "bicycle",
        "source": "survey",
        "website": "https://bikebarnatlanta.com/"
      }
    },
    {
      "type": "node",
      "id": 2271176238,
      "lat": 33.7665589,
      "lon": -84.349437,
      "tags": {
        "name": "Little 5 Points Package",
        "shop": "alcohol"
      }
    },
    {
      "type": "node",
      "id": 2277885163,
      "lat": 33.7816179,
      "lon": -84.3800336,
      "tags": {
        "shop": "convenience",
        "source": "local_knowledge"
      }
    },
    {
      "type": "node",
      "id": 2277885174,
      "lat": 33.7819062,
      "lon": -84.381031,
      "tags": {
        "shop": "massage",
        "source": "local_knowledge"
      }
    },
    {
      "type": "node",
      "id": 2278916329,
      "lat": 33.773895,
      "lon": -84.3681323,
      "tags": {
        "name": "Havoline Express Lube",
        "shop": "car_repair"
      }
    },
    {
      "type": "node",
      "id": 2283469666,
      "lat": 33.804481,
      "lon": -84.3388373,
      "tags": {
        "name": "Pitch 'n Putt",
        "shop": "alcohol",
        "source": "local_knowledge"
      }
    },
    {
      "type": "node",
      "id": 2351694738,
      "lat": 33.798564,
      "lon": -84.371795,
      "tags": {
        "name": "Cook's Warehouse",
        "shop": "kitchen",
        "source": "Local_knowledge",
        "wheelchair": "no"
      }
    },
    {
      "type": "node",
      "id": 2390868670,
      "lat": 33.8044115,
      "lon": -84.4133399,
      "tags": {
        "addr:city": "Atlanta",
        "addr:housenumber": "1801",
        "addr:postcode": "30318",
        "addr:state": "GA",
        "addr:street": "Howell Mill Road Northwest",
        "addr:unit": "Suite 700",
        "alt_name": "Verizon Wireless",
        "brand": "Verizon",
        "brand:wikidata": "Q919641",
        "name": "Verizon",
        "shop": "mobile_phone",
        "source": "local_knowledge"
      }
    },
    {
      "type": "node",
      "id": 2390868671,
      "lat": 33.7917765,
      "lon": -84.4074537,
      "tags": {
        "name": "Northside Package",
        "shop": "alcohol",
        "source": "local_knowledge"
      }
    },
    {
      "type": "node",
      "id": 2404357400,
      "lat": 33.781338,
      "lon": -84.368367,
      "tags": {
        "name": "Whole Dog Market",
        "shop": "pet",
        "source": "Local_knowledge",
        "wheelchair": "limited"
      }
    },
    {
      "type": "node",
      "id": 2404359733,
      "lat": 33.781525,
      "lon": -84.368448,
      "tags": {
        "name": "Mint Salon",
        "shop": "beauty",
        "source": "Local_knowledge"
      }
    },
    {
      "type": "node",
      "id": 2404373167,
      "lat": 33.7803409,
      "lon": -84.3686685,
      "tags": {
        "addr:housenumber": "931",
        "addr:street": "Monroe Drive Northeast",
        "addr:unit": "102",
        "amenity": "post_office",
        "brand": "The UPS Store",
        "brand:wikidata": "Q7771029",
        "check_date": "2024-03-16",
        "email": "store2121@theupsstore.com",
        "name": "The UPS Store - Monroe Dr",
        "opening_hours": "Mo-Fr 08:30-19:00; Sa 09:00-17:00; Su 10:00-15:00",
        "payment:cash": "yes",
        "payment:credit_cards": "yes",
        "payment:debit_cards": "yes",
        "phone": "+1 404-873-3433",
        "shop": "copyshop",
        "short_name": "UPS",
        "source": "Local_knowledge",
        "website": "https://locations.theupsstore.com/ga/atlanta/931-monroe-dr",
        "wheelchair": "limited"
      }
    },
    {
      "type": "node",
      "id": 2421385675,
      "lat": 33.782909,
      "lon": -84.36811,
      "tags": {
        "addr:city": "Atlanta",
        "addr:housenumber": "1035",
        "addr:postcode": "30306",
        "addr:state": "GA",
        "addr:street": "Monroe Drive Northeast",
        "email": "info@intownbicycles.com",
        "name": "Intown Bicycles",
        "opening_hours": "Su 12:02-17:00; Tu-Fr 10:00-18:00; Sa 10:00-17:00",
        "payment:credit_cards": "yes",
        "payment:debit_cards": "yes",
        "phone": "+1-404-872-1736",
        "service:bicycle:pump": "yes",
        "service:bicycle:repair": "yes",
        "service:bicycle:retail": "yes",
        "service:bicycle:second_hand": "no",
        "shop": "bicycle",
        "source": "Local_knowledge",
        "wheelchair": "limited"
      }
    },
    {
      "type": "node",
      "id": 2421386319,
      "lat": 33.793086,
      "lon": -84.399525,
      "tags": {
        "addr:city": "Atlanta",
        "addr:housenumber": "375",
        "addr:postcode": "30363-1190",
        "addr:state": "GA",
        "addr:street": "18th Street",
        "brand": "Target",
        "brand:wikidata": "Q1046951",
        "name": "Target",
        "opening_hours": "Mo-Fr 08:00-23:00, Sa,Su 08:00-23:00",
        "phone": "+1 678-954-4265",
        "shop": "department_store",
        "source": "Local_knowledge",
        "toilets": "yes",
        "website": "https://www.target.com/sl/atlanta-midtown/2137"
      }
    },
    {
      "type": "node",
      "id": 2421387566,
      "lat": 33.828273,
      "lon": -84.3663,
      "tags": {
        "addr:city": "Atlanta",
        "addr:housenumber": "2625",
        "addr:postcode": "30324-3011",
        "addr:state": "GA",
        "addr:street": "Piedmont Road Northeast",
        "brand": "Michaels",
        "brand:wikidata": "Q6835667",
        "name": "Michaels",
        "opening_hours": "Mo-Sa 09:00-21:00; Su 10:00-19:00",
        "phone": "+1 404-266-8711",
        "ref": "9543",
        "shop": "craft",
        "source": "Local_knowledge",
        "website": "https://locations.michaels.com/ga/atlanta/9543",
        "wheelchair": "yes"
      }
    },
    {
      "type": "node",
      "id": 2431156799,
      "lat": 33.7808316,
      "lon": -84.387766,
      "tags": {
        "check_date:opening_hours": "2021-10-02",
        "name": "Mac's Beer and Wine",
        "opening_hours": "Mo-We 10:00-22:00, Th 10:00-23:40, Fr,Sa 09:00-23:40, Su 12:30-20:00",
        "shop": "alcohol",
        "wheelchair": "yes"
      }
    },
    {
      "type": "node",
      "id": 2499490637,
      "lat": 33.7999589,
      "lon": -84.4186821,
      "tags": {
        "addr:city": "Atlanta",
        "addr:housename": "Atlanta Bike Tech",
        "addr:housenumber": "935",
        "addr:postcode": "30318",
        "addr:state": "GA",
        "addr:street": "Chattahoochee Avenue Northwest",
        "name": "Atlanta Bike Tech",
        "phone": "+1-404-352-1445",
        "shop": "bicycle",
        "website": "http://www.atlbiketech.com/"
      }
    },
    {
      "type": "node",
      "id": 2562004187,
      "lat": 33.7583378,
      "lon": -84.3466381,
      "tags": {
        "addr:city": "Atlanta",
        "addr:housenumber": "1270",
        "addr:postcode": "30307",
        "addr:state": "GA",
        "addr:street": "Caroline Street",
        "name": "OZ Health Shop",
        "shop": "deli",
        "website": "https://www.ozhealthshop.com/"
      }
    },
    {
      "type": "node",
      "id": 2626402978,
      "lat": 33.7422084,
      "lon": -84.3732891,
      "tags": {
        "addr:city": "Atlanta",
        "addr:housenumber": "452A",
        "addr:postcode": "30312",
        "addr:state": "GA",
        "addr:street": "Cherokee Avenue Southeast",
        "email": "david@loosenutscycles.com",
        "name": "Loose Nuts Cycles",
        "opening_hours": "Tu-Fr 12:00-19:00; Sa 11:00-17:00",
        "payment:credit_cards": "yes",
        "payment:debit_cards": "yes",
        "phone": "+1-404-228-5555",
        "service:bicycle:pump": "yes",
        "service:bicycle:repair": "yes",
        "service:bicycle:retail": "yes",
        "service:bicycle:second_hand": "no",
        "shop": "bicycle",
        "website": "http://www.loosenutscycles.com",
        "wheelchair": "no"
      }
    },
    {
      "type": "node",
      "id": 2749706293,
      "lat": 33.7782993,
      "lon": -84.3829464,
      "tags": {
        "addr:city": "Atlanta",
        "addr:floor": "G;1",
        "addr:housenumber": "860",
        "addr:postcode": "30308",
        "addr:state": "GA",
        "addr:street": "Juniper Street Northeast",
        "brand": "Ace Hardware",
        "brand:wikidata": "Q4672981",
        "check_date": "2025-03-27",
        "internet_access": "no",
        "level": "0;1",
        "name": "Shep's Midtown Ace",
        "opening_hours": "Mo-Fr 09:00-18:30; Sa-Su 10:00-18:00",
        "payment:cash": "no",
        "payment:credit_cards": "yes",
        "payment:debit_cards": "yes",
        "phone": "+1 404-228-2291",
        "ref": "16037",
        "shop": "hardware",
        "wheelchair": "yes"
      }
    },
    {
      "type": "node",
      "id": 2750966522,
      "lat": 33.7774898,
      "lon": -84.3841669,
      "tags": {
        "addr:city": "Atlanta",
        "addr:floor": "G;1",
        "addr:housenumber": "855",
        "addr:postcode": "30308",
        "addr:state": "GA",
        "addr:street": "Peachtree Street Northeast",
        "addr:unit": "7",
        "check_date": "2024-12-12",
        "level": "0;1",
        "shop": "vacant",
        "wheelchair": "yes"
      }
    },
    {
      "type": "node",
      "id": 2755107706,
      "lat": 33.7517389,
      "lon": -84.3935446,
      "tags": {
        "addr:city": "Atlanta",
        "addr:housenumber": "107",
        "addr:postcode": "30303",
        "addr:state": "GA",
        "addr:street": "Broad Street Southwest",
        "name": "Taj Perfumes Inc.",
        "opening_hours": "Mo-Sa 09:00-18:00",
        "phone": "+1-404-688-4445",
        "shop": "cosmetics",
        "website": "http://www.taj-perfumes.com/"
      }
    },
    {
      "type": "node",
      "id": 2755107932,
      "lat": 33.7492097,
      "lon": -84.3942514,
      "tags": {
        "addr:city": "Atlanta",
        "addr:housenumber": "194",
        "addr:postcode": "30303",
        "addr:state": "GA",
        "addr:street": "Peachtree Street Southwest",
        "name": "A Rapid Bonding Inc",
        "phone": "+1-404-659-4209",
        "shop": "money_lender"
      }
    },
    {
      "type": "node",
      "id": 2755107962,
      "lat": 33.7523724,
      "lon": -84.3954236,
      "tags": {
        "addr:city": "Atlanta",
        "addr:housenumber": "237",
        "addr:postcode": "30303",
        "addr:state": "GA",
        "addr:street": "Mitchell Street Southwest",
        "name": "Oh! My Nappy Hair Salon",
        "opening_hours": "\"by appointment\"",
        "phone": "+1-404-221-8900",
        "shop": "hairdresser",
        "website": "http://www.ohmynappyhair.com/"
      }
    },
    {
      "type": "node",
      "id": 2755107966,
      "lat": 33.750695,
      "lon": -84.3960788,
      "tags": {
        "addr:city": "Atlanta",
        "addr:housenumber": "249",
        "addr:postcode": "30303",
        "addr:state": "GA",
        "addr:street": "Trinity Avenue Southwest",
        "addr:unit": "C",
        "air_conditioning": "yes",
        "min_age": "21",
        "name": "Exotic 404",
        "opening_hours": "Mo-Su 18:00-06:00",
        "payment:american_express": "yes",
        "payment:apple_pay": "yes",
        "payment:cash": "yes",
        "payment:contactless": "yes",
        "payment:credit_cards": "yes",
        "payment:debit_cards": "yes",
        "payment:discover_card": "yes",
        "payment:google_pay": "yes",
        "payment:mastercard": "yes",
        "payment:visa": "yes",
        "payment:visa_debit": "yes",
        "phone": "+1-470-355-8197",
        "shop": "tobacco",
        "toilets": "yes",
        "website": "https://404exoticatlanta.com/"
      }
    },
    {
      "type": "node",
      "id": 2755107984,
      "lat": 33.7516639,
      "lon": -84.3985619,
      "tags": {
        "addr:city": "Atlanta",
        "addr:housenumber": "327",
        "addr:postcode": "30313",
        "addr:street": "Nelson Street Southwest",
        "name": "Happy Hearts Pet Care Services",
        "shop": "pet_grooming",
        "website": "https://happyheartspcs.wixsite.com"
      }
    },
    {
      "type": "node",
      "id": 2755107986,
      "lat": 33.7516306,
      "lon": -84.3987048,
      "tags": {
        "addr:city": "Atlanta",
        "addr:housenumber": "329",
        "addr:postcode": "30313",
        "addr:street": "Nelson Street Southwest",
        "name": "Brooklyn Tea",
        "shop": "tea",
        "website": "https://brooklyntea.com/pages/atlanta-tearoom"
      }
    },
    {
      "type": "node",
      "id": 2755107988,
      "lat": 33.7516,
      "lon": -84.3988285,
      "tags": {
        "addr:city": "Atlanta",
        "addr:housenumber": "335",
        "addr:postcode": "30313",
        "addr:street": "Nelson Street Southwest",
        "name": "Salon Bougie",
        "shop": "hairdresser"
      }
    },
    {
      "type": "node",
      "id": 2755107997,
      "lat": 33.7530454,
      "lon": -84.3916136,
      "tags": {
        "addr:city": "Atlanta",
        "addr:housenumber": "63",
        "addr:postcode": "30303",
        "addr:state": "GA",
        "addr:street": "Peachtree Street Southwest",
        "name": "Simply Fashion",
        "phone": "+1-404-522-5203",
        "shop": "clothes",
        "website": "http://www.simplyfashion.com"
      }
    },
    {
      "type": "node",
      "id": 2758514682,
      "lat": 33.7492013,
      "lon": -84.4213503,
      "tags": {
        "addr:city": "Atlanta",
        "addr:housenumber": "1021",
        "addr:postcode": "30314",
        "addr:street": "Fair Street Southwest",
        "name": "Fair Street Superette",
        "shop": "convenience"
      }
    },
    {
      "type": "node",
      "id": 2760787870,
      "lat": 33.7790028,
      "lon": -84.4095313,
      "tags": {
        "name": "Outdoor/Bike Shop",
        "shop": "yes"
      }
    },
    {
      "type": "node",
      "id": 2760845504,
      "lat": 33.7400361,
      "lon": -84.3465067,
      "tags": {
        "addr:city": "Atlanta",
        "addr:housenumber": "1257",
        "addr:postcode": "30316",
        "addr:street": "Glenwood Avenue Southeast",
        "addr:unit": "A",
        "name": "Emerald City Bagels",
        "shop": "bakery"
      }
    },
    {
      "type": "node",
      "id": 2762325257,
      "lat": 33.7471844,
      "lon": -84.4231901,
      "tags": {
        "addr:city": "Atlanta",
        "addr:housenumber": "1083",
        "addr:postcode": "30310",
        "addr:street": "Westview Drive Southwest",
        "name": "Southern Supermarket",
        "shop": "convenience"
      }
    },
    {
      "type": "node",
      "id": 2771406876,
      "lat": 33.7278304,
      "lon": -84.4162149,
      "tags": {
        "addr:city": "Atlanta",
        "addr:housenumber": "982",
        "addr:postcode": "30310",
        "addr:street": "Murphy Avenue Southwest",
        "name": "Bearings Bike Shop",
        "phone": "4049510998",
        "shop": "bicycle",
        "website": "https://bearingsbikeshop.org"
      }
    },
    {
      "type": "node",
      "id": 2930419354,
      "lat": 33.8403288,
      "lon": -84.3726363,
      "tags": {
        "addr:city": "Atlanta",
        "addr:housenumber": "3120",
        "addr:postcode": "30305",
        "addr:state": "GA",
        "addr:street": "Maple Drive Northeast",
        "amenity": "doctors",
        "contact:phone": "+1 (404) 233-3267",
        "contact:website": "http://www.georgiaeyeassociates.com/",
        "health_specialty:ophthalmology": "yes",
        "healthcare": "doctor",
        "healthcare:speciality": "ophthalmology",
        "name": "Georgia Eye Associates",
        "opening_hours": "Mo-We 08:00-17:00; Th 08:00-16:00; Fr 08:00-17:00; PH off",
        "phone": "+1 (404) 233-3267",
        "shop": "optician",
        "website": "https://www.georgiaeyeassociates.com/"
      }
    },
    {
      "type": "node",
      "id": 2944768833,
      "lat": 33.780127,
      "lon": -84.383941,
      "tags": {
        "addr:city": "Atlanta",
        "addr:postcode": "30309",
        "addr:street": "Peachtree Street Northeast",
        "atm": "no",
        "name": "James Madison Hair",
        "shop": "beauty",
        "source": "Survey",
        "wheelchair": "no"
      }
    },
    {
      "type": "node",
      "id": 2946813733,
      "lat": 33.792737,
      "lon": -84.352234,
      "tags": {
        "name": "Highland Wine and Crystal",
        "shop": "wine",
        "source": "Survey"
      }
    },
    {
      "type": "node",
      "id": 2981923779,
      "lat": 33.8513155,
      "lon": -84.4291735,
      "tags": {
        "check_date": "2024-01-22",
        "name": "Ace Hardware",
        "payment:cash": "yes",
        "payment:credit_cards": "yes",
        "payment:debit_cards": "yes",
        "shop": "hardware",
        "source": "survey",
        "wheelchair": "yes"
      }
    },
    {
      "type": "node",
      "id": 2981923780,
      "lat": 33.8512173,
      "lon": -84.4291735,
      "tags": {
        "branch": "Nails & Spa",
        "brand": "Lush",
        "brand:wikidata": "Q1585448",
        "name": "Lush",
        "opening_hours": "Mo-Sa 09:30-20:00; Su 12:00-18:00",
        "phone": "+1-404-549-8553",
        "shop": "cosmetics",
        "source": "survey 2014-07-26"
      }
    },
    {
      "type": "node",
      "id": 2981923782,
      "lat": 33.8510601,
      "lon": -84.4291684,
      "tags": {
        "addr:city": "Atlanta",
        "addr:housenumber": "3524",
        "addr:postcode": "30327",
        "addr:state": "GA",
        "addr:street": "Northside Parkway Northwest",
        "name": "Red Bandanna Pet Food",
        "opening_hours": "Tu-Sa 10:00-19:00; Su 12:00-18:00",
        "phone": "+1-404-231-1333",
        "shop": "pet",
        "source": "survey 2014-07-26",
        "website": "http://www.redbandannapetfood.com/"
      }
    },
    {
      "type": "node",
      "id": 2981923783,
      "lat": 33.8508078,
      "lon": -84.4291562,
      "tags": {
        "addr:city": "Atlanta",
        "addr:housenumber": "3519",
        "addr:postcode": "30327",
        "addr:state": "GA",
        "addr:street": "Northside Parkway Northwest",
        "brand": "Ace Hardware",
        "brand:wikidata": "Q4672981",
        "name": "Ace Hardware",
        "opening_hours": "Mo-Sa 08:00-19:00; Su 10:00-18:00",
        "phone": "+1-404-261-6000",
        "shop": "doityourself",
        "source": "survey 2014-07-26",
        "website": "https://www.smithacehardware.com/"
      }
    },
    {
      "type": "node",
      "id": 2981923785,
      "lat": 33.8507354,
      "lon": -84.4291538,
      "tags": {
        "addr:city": "Atlanta",
        "addr:housenumber": "3517",
        "addr:postcode": "30327",
        "addr:state": "GA",
        "addr:street": "Northside Parkway Northwest",
        "addr:suite": "11",
        "name": "West Stride",
        "opening_hours": "Mo-Fr 10:00-19:00; Sa 10:00-18:00; Su 12:00-17:00",
        "phone": "+1-404-467-1010",
        "shop": "shoes",
        "source": "survey 2014-07-26",
        "website": "https://www.weststride.com/"
      }
    },
    {
      "type": "node",
      "id": 2993893833,
      "lat": 33.765829,
      "lon": -84.363242,
      "tags": {
        "addr:city": "Atlanta",
        "addr:housenumber": "723",
        "addr:postcode": "30307",
        "addr:street": "Ralph McGill Boulevard",
        "name": "Sunbelt Rentals",
        "shop": "hardware",
        "source": "Survey",
        "wheelchair": "no"
      }
    },
    {
      "type": "node",
      "id": 2994268633,
      "lat": 33.793215,
      "lon": -84.352015,
      "tags": {
        "name": "Join Us Cleaners",
        "shop": "dry_cleaning",
        "source": "Survey",
        "wheelchair": "yes"
      }
    },
    {
      "type": "node",
      "id": 3021596179,
      "lat": 33.8352626,
      "lon": -84.3827539,
      "tags": {
        "addr:city": "Atlanta",
        "addr:housenumber": "2900",
        "addr:postcode": "30305",
        "addr:state": "GA",
        "addr:street": "Peachtree Road",
        "brand": "Barnes & Noble",
        "brand:wikidata": "Q795454",
        "check_date": "2024-09-10",
        "internet_access": "wlan",
        "name": "Barnes & Noble",
        "opening_hours": "Mo-Sa 09:00-21:00; Su 11:00-20:00",
        "payment:cash": "yes",
        "payment:mastercard": "yes",
        "payment:visa": "yes",
        "phone": "+1 (404) 261-7747",
        "shop": "books",
        "website": "https://store-locator.barnesandnoble.com/store/1907",
        "wheelchair": "yes"
      }
    },
    {
      "type": "node",
      "id": 3113367229,
      "lat": 33.851706,
      "lon": -84.358764,
      "tags": {
        "addr:city": "Atlanta",
        "addr:housenumber": "3535",
        "addr:postcode": "30326",
        "addr:state": "GA",
        "addr:street": "Peachtree Road Northeast",
        "atm": "yes",
        "brand": "Target",
        "brand:wikidata": "Q1046951",
        "check_date:opening_hours": "2025-04-09",
        "name": "Target",
        "opening_hours": "Mo-Su 08:00-22:00",
        "phone": "+1-404-237-9494",
        "shop": "department_store",
        "source": "Survey",
        "toilets": "yes",
        "website": "https://www.target.com/sl/buckhead/1197",
        "wheelchair": "yes"
      }
    },
    {
      "type": "node",
      "id": 3113368729,
      "lat": 33.853265,
      "lon": -84.358565,
      "tags": {
        "brand": "The Container Store",
        "brand:wikidata": "Q7727445",
        "name": "The Container Store",
        "shop": "houseware",
        "source": "Survey",
        "wheelchair": "yes"
      }
    },
    {
      "type": "node",
      "id": 3113375329,
      "lat": 33.8528,
      "lon": -84.359743,
      "tags": {
        "addr:city": "Atlanta",
        "addr:housenumber": "3535",
        "addr:postcode": "30326",
        "addr:state": "GA",
        "addr:street": "Peachtree Road",
        "brand": "Dick's Sporting Goods",
        "brand:wikidata": "Q5272601",
        "name": "Dick's Sporting Goods",
        "opening_hours": "Mo-Sa 09:00-21:00; Su 10:00-19:00",
        "phone": "+1 404-267-0200",
        "ref": "418",
        "shop": "sports",
        "source": "Survey",
        "website": "https://stores.dickssportinggoods.com/ga/atlanta/418/",
        "wheelchair": "yes"
      }
    },
    {
      "type": "node",
      "id": 3113503529,
      "lat": 33.845815,
      "lon": -84.364679,
      "tags": {
        "atm": "no",
        "brand": "Crate & Barrel",
        "brand:wikidata": "Q5182604",
        "internet_access": "wlan",
        "name": "Crate & Barrel",
        "shop": "furniture",
        "source": "Survey",
        "wheelchair": "yes"
      }
    },
    {
      "type": "node",
      "id": 3113548129,
      "lat": 33.846159,
      "lon": -84.363983,
      "tags": {
        "brand": "Neiman Marcus",
        "brand:wikidata": "Q743497",
        "name": "Neiman Marcus",
        "shop": "department_store",
        "source": "Survey",
        "wheelchair": "yes"
      }
    },
    {
      "type": "node",
      "id": 3113551229,
      "lat": 33.848158,
      "lon": -84.363032,
      "tags": {
        "addr:city": "Atlanta",
        "addr:housenumber": "3393",
        "addr:postcode": "30326",
        "addr:state": "GA",
        "addr:street": "Peachtree Road",
        "brand": "Nike",
        "brand:wikidata": "Q483915",
        "comment": "A favorite landmark edited by a Nearby Explorer user (requested 04/22/2023)",
        "description": "Shoes",
        "fixme": "Confirm - location generated by GPS (requested 04/22/2023)",
        "name": "Nike",
        "review_requested": "yes",
        "shop": "clothes",
        "source": "Survey",
        "wheelchair": "yes"
      }
    },
    {
      "type": "node",
      "id": 3113556429,
      "lat": 33.848253,
      "lon": -84.362217,
      "tags": {
        "brand": "Macy's",
        "brand:wikidata": "Q629269",
        "internet_access": "wlan",
        "level": "3",
        "name": "Macy's",
        "shop": "department_store",
        "source": "Survey",
        "website": "https://www.macys.com/stores/ga/atlanta/lenox-square_730.html",
        "wheelchair": "yes",
        "xmas:feature": "tree"
      }
    },
    {
      "type": "node",
      "id": 3113559529,
      "lat": 33.853634,
      "lon": -84.35862,
      "tags": {
        "addr:city": "Atlanta",
        "addr:state": "GA",
        "brand": "JoS. A. Bank",
        "brand:wikidata": "Q6204078",
        "name": "JoS. A. Bank",
        "official_name": "Jos. A. Bank Clothiers",
        "shop": "clothes",
        "source": "Survey",
        "wheelchair": "yes"
      }
    },
    {
      "type": "node",
      "id": 3129949341,
      "lat": 33.7508834,
      "lon": -84.3227359,
      "tags": {
        "shop": "convenience"
      }
    },
    {
      "type": "node",
      "id": 3129949344,
      "lat": 33.7515101,
      "lon": -84.3231302,
      "tags": {
        "name": "Jazmin Spa",
        "shop": "beauty",
        "source": "local_knowledge"
      }
    },
    {
      "type": "node",
      "id": 3129949346,
      "lat": 33.7512781,
      "lon": -84.3221002,
      "tags": {
        "name": "Kirkwood Feed and Seed",
        "shop": "pet"
      }
    },
    {
      "type": "node",
      "id": 3129949347,
      "lat": 33.7512848,
      "lon": -84.3219554,
      "tags": {
        "name": "Kirkwood Bark and Lounge",
        "shop": "pet"
      }
    },
    {
      "type": "node",
      "id": 3129949348,
      "lat": 33.7513049,
      "lon": -84.3222424,
      "tags": {
        "name": "Takai Atlanta Hair Salon",
        "shop": "beauty"
      }
    },
    {
      "type": "node",
      "id": 3159219705,
      "lat": 33.7716916,
      "lon": -84.366751,
      "tags": {
        "addr:city": "Atlanta",
        "addr:housenumber": "650",
        "addr:postcode": "30308",
        "addr:state": "GA",
        "addr:street": "North Avenue Northeast",
        "name": "Binders",
        "phone": "+1-404-682-6999",
        "shop": "craft",
        "website": "https://www.bindersart.com/ponce-city-market-store"
      }
    },
    {
      "type": "node",
      "id": 3177347161,
      "lat": 33.8511259,
      "lon": -84.3594776,
      "tags": {
        "addr:city": "Atlanta",
        "addr:housenumber": "3535",
        "addr:postcode": "30326-3287",
        "addr:state": "GA",
        "addr:street": "Peachtree Road Northeast",
        "branch": "Lenox Marketplace",
        "brand": "Publix",
        "brand:wikidata": "Q672170",
        "check_date:opening_hours": "2025-04-09",
        "name": "Publix",
        "opening_hours": "Mo-Su 07:00-22:00",
        "operator": "Publix",
        "phone": "+1 404-848-0344",
        "ref": "664",
        "shop": "supermarket",
        "website": "https://www.publix.com/locations/664"
      }
    },
    {
      "type": "node",
      "id": 3200653490,
      "lat": 33.7755442,
      "lon": -84.3530983,
      "tags": {
        "addr:city": "Atlanta",
        "addr:housenumber": "1054",
        "addr:postcode": "30306",
        "addr:state": "GA",
        "addr:street": "St Charles Avenue Northeast",
        "name": "Bridge Boutique",
        "opening_hours": "Mo-Sa 11:00-19:00; Su 12:00-18:00",
        "shop": "clothes",
        "website": "http://bridgeboutique.com/"
      }
    },
    {
      "type": "node",
      "id": 3200764266,
      "lat": 33.7755446,
      "lon": -84.3529905,
      "tags": {
        "addr:city": "Atlanta",
        "addr:housenumber": "1056",
        "addr:postcode": "30306",
        "addr:state": "GA",
        "addr:street": "St Charles Avenue Northeast",
        "brand": "Ten Thousand Villages",
        "brand:wikidata": "Q2403252",
        "fair_trade": "only",
        "name": "Ten Thousand Villages",
        "opening_hours": "Mo-Sa 11:00-18:00; Su 13:00-17:00",
        "shop": "interior_decoration"
      }
    },
    {
      "type": "node",
      "id": 3200783980,
      "lat": 33.7755513,
      "lon": -84.3528899,
      "tags": {
        "addr:city": "Atlanta",
        "addr:housenumber": "1060",
        "addr:postcode": "30306",
        "addr:state": "GA",
        "addr:street": "St Charles Avenue Northeast",
        "name": "Threadz",
        "opening_hours": "Tu-Th 11:00-19:00; Fr-Sa 11:00-20:00; Su 12:00-18:00",
        "shop": "clothes"
      }
    },
    {
      "type": "node",
      "id": 3273689414,
      "lat": 33.8526949,
      "lon": -84.3624136,
      "tags": {
        "name": "Legoland Discovery Center",
        "shop": "toys",
        "website": "https://www.legolanddiscoverycenter.com/Atlanta"
      }
    },
    {
      "type": "node",
      "id": 3360563393,
      "lat": 33.80145,
      "lon": -84.327232,
      "tags": {
        "atm": "no",
        "brand": "Ann Taylor ",
        "name": "Loft ",
        "shop": "shopping_centre",
        "source": "Survey ",
        "wheelchair": "yes"
      }
    },
    {
      "type": "node",
      "id": 3372607295,
      "lat": 33.7793271,
      "lon": -84.410365,
      "tags": {
        "addr:city": "Atlanta",
        "addr:housenumber": "1009-A",
        "addr:postcode": "30318",
        "addr:state": "GA",
        "addr:street": "Marietta Street",
        "name": "Tweeds",
        "shop": "clothes",
        "website": "https://tweedsshop.com/"
      }
    },
    {
      "type": "node",
      "id": 3376750155,
      "lat": 33.8351059,
      "lon": -84.3837333,
      "tags": {
        "addr:city": "Atlanta",
        "addr:housenumber": "2900",
        "addr:postcode": "30305",
        "addr:state": "GA",
        "addr:street": "Peachtree Road Northwest",
        "branch": "The Peach",
        "brand": "Publix",
        "brand:wikidata": "Q672170",
        "check_date": "2024-09-10",
        "healthcare": "pharmacy",
        "name": "Publix",
        "opening_hours": "06:00-23:00",
        "payment:cash": "yes",
        "payment:mastercard": "yes",
        "payment:visa": "yes",
        "phone": "+1 404-848-0330",
        "ref": "282",
        "shop": "supermarket",
        "website": "https://www.publix.com/",
        "wheelchair": "yes"
      }
    },
    {
      "type": "node",
      "id": 3377390832,
      "lat": 33.6868738,
      "lon": -84.4878879,
      "tags": {
        "addr:city": "Atlanta",
        "addr:housenumber": "3030",
        "addr:postcode": "30311",
        "addr:state": "GA",
        "addr:street": "Headland Drive Southwest",
        "branch": "Greenbriar Crossing",
        "brand": "Kroger",
        "brand:wikidata": "Q153417",
        "name": "Kroger",
        "opening_hours": "Mo-Su 06:00-23:00",
        "phone": "+1 404-344-5383",
        "ref": "01100462",
        "shop": "supermarket",
        "website": "https://www.kroger.com/stores/grocery/ga/atlanta/greenbriar-crossing/011/00462"
      }
    },
    {
      "type": "node",
      "id": 3377394829,
      "lat": 33.6889628,
      "lon": -84.4912997,
      "tags": {
        "brand": "Macy's",
        "brand:wikidata": "Q629269",
        "name": "Macy's",
        "operator": "Macy's",
        "shop": "department_store"
      }
    },
    {
      "type": "node",
      "id": 3377396451,
      "lat": 33.6878647,
      "lon": -84.493703,
      "tags": {
        "name": "Deal's",
        "shop": "discount"
      }
    },
    {
      "type": "node",
      "id": 3394631305,
      "lat": 33.7970805,
      "lon": -84.3880689,
      "tags": {
        "name": "Heidi Elnora",
        "shop": "clothes"
      }
    },
    {
      "type": "node",
      "id": 3394631306,
      "lat": 33.7970136,
      "lon": -84.3879807,
      "tags": {
        "name": "Bavaria Yachts",
        "shop": "yes"
      }
    },
    {
      "type": "node",
      "id": 3499572121,
      "lat": 33.7523615,
      "lon": -84.3920704,
      "tags": {
        "addr:city": "Atlanta",
        "addr:housenumber": "87",
        "addr:postcode": "30303",
        "addr:state": "GA",
        "addr:street": "Peachtree Street Southwest",
        "addr:unit": "C",
        "name": "C & S Beauty Supply",
        "shop": "beauty"
      }
    },
    {
      "type": "node",
      "id": 3503290916,
      "lat": 33.7519384,
      "lon": -84.3946145,
      "tags": {
        "addr:city": "Atlanta",
        "addr:housenumber": "209",
        "addr:postcode": "30303",
        "addr:state": "GA",
        "addr:street": "Mitchell Street Southwest",
        "name": "Friedman's Shoes",
        "opening_hours": "Mo-Sa 10:30-17:30",
        "phone": "+1-404-524-1311",
        "shop": "shoes",
        "website": "https://largefeet.com/"
      }
    },
    {
      "type": "node",
      "id": 3503300661,
      "lat": 33.7518458,
      "lon": -84.3944417,
      "tags": {
        "addr:city": "Atlanta",
        "addr:housenumber": "203",
        "addr:postcode": "30303",
        "addr:state": "GA",
        "addr:street": "Mitchell Street Southwest",
        "name": "After Hours Hookah",
        "shop": "tobacco"
      }
    },
    {
      "type": "node",
      "id": 3517731766,
      "lat": 33.7506941,
      "lon": -84.3960078,
      "tags": {
        "addr:city": "Atlanta",
        "addr:housenumber": "249",
        "addr:postcode": "30303",
        "addr:state": "GA",
        "addr:street": "Trinity Avenue Southwest",
        "air_conditioning": "yes",
        "check_date": "2024-10-24",
        "description": "Downtown Atlanta's most rated multi-style tattoo shop. Located inside Castleberry Hill art district close to five points, GA State, and Mercedes-Benz Stadium.\n\nOpen late night until 2 A.M. Call or stop by for a free consultation. Walk Ins are welcome.",
        "email": "ironpalmtattoos@gmail.com",
        "internet_access": "wlan",
        "internet_access:ssid": "Iron Palm Guests",
        "level": "1",
        "min_age": "18",
        "name": "Iron Palm Tattoos & Body Piercing",
        "opening_hours": "Mo-Sa 13:00-02:00; Su 13:00-24:00",
        "operator": "Iron Palm",
        "payment:american_express": "yes",
        "payment:apple_pay": "yes",
        "payment:cash": "yes",
        "payment:contactless": "yes",
        "payment:credit_cards": "yes",
        "payment:debit_cards": "yes",
        "payment:discover_card": "yes",
        "payment:google_pay": "yes",
        "payment:mastercard": "yes",
        "payment:mastercard_contactless": "yes",
        "payment:visa": "yes",
        "payment:visa_debit": "yes",
        "phone": "+1-404-973-7828",
        "shop": "tattoo",
        "toilets": "yes",
        "website": "https://IronPalmTattoos.com",
        "wheelchair": "yes"
      }
    },
    {
      "type": "node",
      "id": 3529202995,
      "lat": 33.7403832,
      "lon": -84.3441096,
      "tags": {
        "addr:city": "Atlanta",
        "addr:housenumber": "1326",
        "addr:postcode": "30316",
        "addr:street": "Glenwood Avenue Southeast",
        "name": "Armor Tire",
        "shop": "car_repair"
      }
    },
    {
      "type": "node",
      "id": 3533818817,
      "lat": 33.7495082,
      "lon": -84.3935922,
      "tags": {
        "addr:city": "Atlanta",
        "addr:housenumber": "172",
        "addr:postcode": "30303",
        "addr:state": "GA",
        "addr:street": "Trinity Avenue Southwest",
        "name": "Clover Cleaners",
        "phone": "+1-404-223-6088",
        "shop": "dry_cleaning"
      }
    },
    {
      "type": "node",
      "id": 3534129699,
      "lat": 33.7491406,
      "lon": -84.3943104,
      "tags": {
        "addr:city": "Atlanta",
        "addr:housenumber": "196",
        "addr:postcode": "30303",
        "addr:state": "GA",
        "addr:street": "Peachtree Street Southwest",
        "name": "Jet Bonding Company",
        "phone": "+1-404-523-7507",
        "shop": "money_lender"
      }
    },
    {
      "type": "node",
      "id": 3545618580,
      "lat": 33.7483247,
      "lon": -84.3956501,
      "tags": {
        "addr:city": "Atlanta",
        "addr:housenumber": "233",
        "addr:postcode": "30303",
        "addr:state": "GA",
        "addr:street": "Peachtree Street Southwest",
        "name": "Free at Last Bail Bonds",
        "opening_hours": "24/7",
        "phone": "+1-404-761-3366",
        "shop": "money_lender",
        "website": "https://www.freeatlastbb.com/"
      }
    },
    {
      "type": "node",
      "id": 3545642895,
      "lat": 33.7483046,
      "lon": -84.3953846,
      "tags": {
        "addr:city": "Atlanta",
        "addr:housenumber": "229",
        "addr:postcode": "30303",
        "addr:state": "GA",
        "addr:street": "Peachtree Street Southwest",
        "name": "Tara Bonding Company",
        "phone": "+1-404-659-6016",
        "shop": "money_lender"
      }
    },
    {
      "type": "node",
      "id": 3545661193,
      "lat": 33.7483671,
      "lon": -84.395331,
      "tags": {
        "addr:city": "Atlanta",
        "addr:housenumber": "229",
        "addr:postcode": "30303",
        "addr:state": "GA",
        "addr:street": "Peachtree Street Southwest",
        "name": "Cagle Bonding Company",
        "opening_hours": "07:00-05:00 open",
        "phone": "+1 404 659 2277",
        "shop": "money_lender",
        "website": "http://www.caglebonding.com/"
      }
    },
    {
      "type": "node",
      "id": 3545667474,
      "lat": 33.7484518,
      "lon": -84.3952746,
      "tags": {
        "addr:city": "Atlanta",
        "addr:housenumber": "227",
        "addr:postcode": "30303",
        "addr:state": "GA",
        "addr:street": "Peachtree Street Southwest",
        "name": "Peachtree Food Mart",
        "phone": "+1-404-681-0021",
        "shop": "convenience"
      }
    },
    {
      "type": "node",
      "id": 3545722390,
      "lat": 33.7485457,
      "lon": -84.3954181,
      "tags": {
        "addr:city": "Atlanta",
        "addr:housenumber": "227",
        "addr:postcode": "30303",
        "addr:state": "GA",
        "addr:street": "Peachtree Street Southwest",
        "name": "In His Hands Bail Bonds",
        "opening_hours": "24/7",
        "phone": "+1 678 515 4743",
        "shop": "money_lender",
        "website": "http://www.inhishandsbailbonds.com/"
      }
    },
    {
      "type": "node",
      "id": 3547804187,
      "lat": 33.7466196,
      "lon": -84.3940867,
      "tags": {
        "addr:city": "Atlanta",
        "addr:housenumber": "200",
        "addr:postcode": "30303",
        "addr:state": "GA",
        "addr:street": "Memorial Drive Southwest",
        "name": "Alpha Bonding",
        "opening_hours": "24/7",
        "phone": "+1-404-523-2352",
        "shop": "money_lender",
        "website": "http://alphabonding.biz/"
      }
    },
    {
      "type": "node",
      "id": 3547804188,
      "lat": 33.7465638,
      "lon": -84.393966,
      "tags": {
        "addr:city": "Atlanta",
        "addr:housenumber": "200",
        "addr:postcode": "30303",
        "addr:state": "GA",
        "addr:street": "Memorial Drive Southwest",
        "name": "Astro Bail Bonding",
        "operator": "Teresa & Richard's Bonding",
        "phone": "+1-404-521-2663",
        "shop": "money_lender"
      }
    },
    {
      "type": "node",
      "id": 3548120092,
      "lat": 33.7524515,
      "lon": -84.3920189,
      "tags": {
        "addr:city": "Atlanta",
        "addr:housenumber": "85",
        "addr:postcode": "30303",
        "addr:state": "GA",
        "addr:street": "Peachtree Street Southwest",
        "name": "Original Nails",
        "phone": "+1-404-681-2244",
        "shop": "beauty"
      }
    },
    {
      "type": "node",
      "id": 3548129093,
      "lat": 33.7525788,
      "lon": -84.3920777,
      "tags": {
        "addr:city": "Atlanta",
        "addr:housenumber": "83",
        "addr:postcode": "30303",
        "addr:state": "GA",
        "addr:street": "Peachtree Street Southwest",
        "alt_name": "MetroPCS",
        "brand": "Metro by T-Mobile",
        "brand:wikidata": "Q1925685",
        "name": "Metro by T-Mobile",
        "opening_hours": "Mo-Sa 09:30-18:30",
        "phone": "+1-404-577-9059",
        "shop": "mobile_phone",
        "website": "https://www.metrobyt-mobile.com/stores/bd/metro-by-t-mobile-atlanta-ga-10203097/"
      }
    },
    {
      "type": "node",
      "id": 3548137122,
      "lat": 33.7525855,
      "lon": -84.3919409,
      "tags": {
        "addr:city": "Atlanta",
        "addr:housenumber": "81",
        "addr:postcode": "30303",
        "addr:state": "GA",
        "addr:street": "Peachtree Street Southwest",
        "name": "The Bootery",
        "phone": "+1-404-688-2220",
        "shop": "shoes"
      }
    },
    {
      "type": "node",
      "id": 3548140583,
      "lat": 33.7527059,
      "lon": -84.3920106,
      "tags": {
        "addr:city": "Atlanta",
        "addr:housenumber": "77",
        "addr:postcode": "30303",
        "addr:state": "GA",
        "addr:street": "Peachtree Street Southwest",
        "name": "77 Nail Spa",
        "phone": "+1-404-331-7777",
        "shop": "beauty"
      }
    },
    {
      "type": "node",
      "id": 3548334383,
      "lat": 33.7528162,
      "lon": -84.3917721,
      "tags": {
        "addr:city": "Atlanta",
        "addr:housenumber": "69",
        "addr:postcode": "30303",
        "addr:state": "GA",
        "addr:street": "Peachtree Street Southwest",
        "name": "New York Fashions",
        "phone": "+1-404-522-6738",
        "shop": "clothes"
      }
    },
    {
      "type": "node",
      "id": 3548349215,
      "lat": 33.752921,
      "lon": -84.3917774,
      "tags": {
        "addr:city": "Atlanta",
        "addr:housenumber": "69",
        "addr:postcode": "30303",
        "addr:state": "GA",
        "addr:street": "Peachtree Street Southwest",
        "name": "Shoes Exotica",
        "phone": "+1-404-522-6738",
        "shop": "shoes",
        "website": "https://upscalemenswear.com/"
      }
    },
    {
      "type": "node",
      "id": 3548349216,
      "lat": 33.7528509,
      "lon": -84.3917132,
      "tags": {
        "addr:city": "Atlanta",
        "addr:housenumber": "69",
        "addr:postcode": "30303",
        "addr:state": "GA",
        "addr:street": "Peachtree Street Southwest",
        "name": "Downtown Mini Mall",
        "shop": "mall"
      }
    },
    {
      "type": "node",
      "id": 3548370659,
      "lat": 33.7528865,
      "lon": -84.3918741,
      "tags": {
        "addr:city": "Atlanta",
        "addr:housenumber": "69",
        "addr:postcode": "30303",
        "addr:state": "GA",
        "addr:street": "Peachtree Street Southwest",
        "brand": "Boost Mobile",
        "brand:wikidata": "Q4943790",
        "name": "Boost Mobile",
        "opening_hours": "Mo-Sa 10:00-21:00; Su 11:00-18:00",
        "phone": "+1-404-827-9345",
        "shop": "mobile_phone",
        "website": "https://www.boostmobile.com/"
      }
    },
    {
      "type": "node",
      "id": 3548372878,
      "lat": 33.752949,
      "lon": -84.3916542,
      "tags": {
        "addr:city": "Atlanta",
        "addr:housenumber": "65",
        "addr:postcode": "30303",
        "addr:state": "GA",
        "addr:street": "Peachtree Street Southwest",
        "name": "City Nails",
        "phone": "+1-404-223-0400",
        "shop": "beauty"
      }
    },
    {
      "type": "node",
      "id": 3548394480,
      "lat": 33.7527973,
      "lon": -84.3914048,
      "tags": {
        "addr:city": "Atlanta",
        "addr:housenumber": "62",
        "addr:postcode": "30303",
        "addr:state": "GA",
        "addr:street": "Peachtree Street Southwest",
        "brand": "Rainbow",
        "brand:wikidata": "Q7284708",
        "name": "Rainbow",
        "opening_hours": "Mo-Sa 10:00-19:00; Su 12:00-18:00",
        "phone": "+1-404-521-2224",
        "shop": "clothes",
        "website": "https://stores.rainbowshops.com/ga/atlanta/91/"
      }
    },
    {
      "type": "node",
      "id": 3548405340,
      "lat": 33.7526658,
      "lon": -84.3915067,
      "tags": {
        "addr:city": "Atlanta",
        "addr:housenumber": "68",
        "addr:postcode": "30303",
        "addr:state": "GA",
        "addr:street": "Peachtree Street Southwest",
        "name": "J & C Food Mart",
        "phone": "+1-404-525-3534",
        "shop": "convenience"
      }
    },
    {
      "type": "node",
      "id": 3548408983,
      "lat": 33.7526156,
      "lon": -84.3915643,
      "tags": {
        "addr:city": "Atlanta",
        "addr:housenumber": "70",
        "addr:postcode": "30303",
        "addr:state": "GA",
        "addr:street": "Peachtree Street Southwest",
        "name": "Zam Zam",
        "phone": "+1-404-658-9489",
        "religion": "muslim",
        "shop": "religion"
      }
    },
    {
      "type": "node",
      "id": 3548414995,
      "lat": 33.752552,
      "lon": -84.391614,
      "tags": {
        "addr:city": "Atlanta",
        "addr:housenumber": "74",
        "addr:postcode": "30303",
        "addr:state": "GA",
        "addr:street": "Peachtree Street Southwest",
        "name": "Discount Store",
        "shop": "variety_store"
      }
    },
    {
      "type": "node",
      "id": 3548426721,
      "lat": 33.7524896,
      "lon": -84.3916515,
      "tags": {
        "addr:city": "Atlanta",
        "addr:housenumber": "76",
        "addr:postcode": "30303",
        "addr:state": "GA",
        "addr:street": "Peachtree Street Southwest",
        "name": "J & J Jewelry",
        "phone": "+1-404-659-0005",
        "shop": "jewelry"
      }
    },
    {
      "type": "node",
      "id": 3548926407,
      "lat": 33.753579,
      "lon": -84.3929883,
      "tags": {
        "addr:city": "Atlanta",
        "addr:housenumber": "31",
        "addr:postcode": "30303",
        "addr:state": "GA",
        "addr:street": "Forsyth Street Northwest",
        "addr:unit": "A",
        "name": "Awa African Hair Braiding & Barbershop",
        "phone": "+1-404-584-5339",
        "shop": "hairdresser",
        "website": "https://www.facebook.com/pages/Africa-Hair-Braiding/107359422653459"
      }
    },
    {
      "type": "node",
      "id": 3548926432,
      "lat": 33.7518506,
      "lon": -84.3924835,
      "tags": {
        "addr:city": "Atlanta",
        "addr:housenumber": "103",
        "addr:postcode": "30303",
        "addr:state": "GA",
        "addr:street": "Peachtree Street Southwest",
        "name": "Secret Essence & Beauty",
        "phone": "+1-404-589-4919",
        "shop": "beauty",
        "website": "https://essencesoap.com/"
      }
    },
    {
      "type": "node",
      "id": 3548927493,
      "lat": 33.751794,
      "lon": -84.3925281,
      "tags": {
        "addr:city": "Atlanta",
        "addr:housenumber": "105",
        "addr:postcode": "30303",
        "addr:state": "GA",
        "addr:street": "Peachtree Street Southwest",
        "shop": "vacant"
      }
    },
    {
      "type": "node",
      "id": 3548928217,
      "lat": 33.7517488,
      "lon": -84.3925643,
      "tags": {
        "addr:city": "Atlanta",
        "addr:housenumber": "107",
        "addr:postcode": "30303",
        "addr:state": "GA",
        "addr:street": "Peachtree Street Southwest",
        "shop": "vacant"
      }
    },
    {
      "type": "node",
      "id": 3551718424,
      "lat": 33.7399201,
      "lon": -84.3477381,
      "tags": {
        "addr:city": "Atlanta",
        "addr:housenumber": "1215",
        "addr:postcode": "30316",
        "addr:street": "ood Avenue Southeast",
        "name": "Village Garage",
        "shop": "car_repair"
      }
    },
    {
      "type": "node",
      "id": 3569691293,
      "lat": 33.7339127,
      "lon": -84.3499827,
      "tags": {
        "addr:city": "Atlanta",
        "addr:housenumber": "749",
        "addr:postcode": "30316",
        "addr:state": "GA",
        "addr:street": "Moreland Avenue Southeast",
        "name": "Endulge Cupcake Boutique",
        "opening_hours": "Tu-Sa 11:00-19:00; Su 14:00-19:00",
        "shop": "bakery",
        "wheelchair": "yes"
      }
    },
    {
      "type": "node",
      "id": 3641021868,
      "lat": 33.748944,
      "lon": -84.3967869,
      "tags": {
        "addr:city": "Atlanta",
        "addr:housenumber": "215",
        "addr:postcode": "30303",
        "addr:state": "GA",
        "addr:street": "Forsyth Street Northwest",
        "name": "Quick Pick Convenience Store",
        "phone": "+1-404-523-7922",
        "shop": "convenience"
      }
    },
    {
      "type": "node",
      "id": 3761375473,
      "lat": 33.7738165,
      "lon": -84.3925042,
      "tags": {
        "shop": "ticket"
      }
    },
    {
      "type": "node",
      "id": 4002178894,
      "lat": 33.7738758,
      "lon": -84.3678844,
      "tags": {
        "name": "Angel Nails",
        "shop": "beauty"
      }
    },
    {
      "type": "node",
      "id": 4081605990,
      "lat": 33.8201801,
      "lon": -84.3865942,
      "tags": {
        "addr:city": "Atlanta",
        "addr:housenumber": "2365",
        "addr:postcode": "30305",
        "addr:state": "GA",
        "addr:street": "Peachtree Road",
        "brand": "Ace Hardware",
        "brand:wikidata": "Q4672981",
        "name": "Ace Hardware Peachtree Battle",
        "opening_hours": "Mo-Sa 08:30-18:30; Su 10:00-18:00",
        "phone": "+1 404-841-9525",
        "ref": "16542",
        "shop": "doityourself"
      }
    },
    {
      "type": "node",
      "id": 4081905073,
      "lat": 33.8183129,
      "lon": -84.3809736,
      "tags": {
        "addr:city": "Atlanta",
        "addr:housenumber": "200",
        "addr:postcode": "30305",
        "addr:state": "GA",
        "addr:street": "Peachtree Hills Avenue Northeast, Ste A",
        "name": "pH Wine Merchant",
        "shop": "wine"
      }
    },
    {
      "type": "node",
      "id": 4081975050,
      "lat": 33.8201636,
      "lon": -84.3877809,
      "tags": {
        "addr:city": "Atlanta",
        "addr:housenumber": "2391",
        "addr:postcode": "30305",
        "addr:state": "GA",
        "addr:street": "Peachtree Road",
        "brand": "Talbots",
        "brand:wikidata": "Q7679064",
        "name": "Talbots",
        "shop": "clothes",
        "wheelchair": "yes"
      }
    },
    {
      "type": "node",
      "id": 4160174501,
      "lat": 33.8365217,
      "lon": -84.3789243,
      "tags": {
        "shop": "seafood"
      }
    },
    {
      "type": "node",
      "id": 4160178589,
      "lat": 33.7852275,
      "lon": -84.4120591,
      "tags": {
        "name": "Perrine's Wine Shop",
        "shop": "alcohol"
      }
    },
    {
      "type": "node",
      "id": 4262434590,
      "lat": 33.7546836,
      "lon": -84.3631199,
      "tags": {
        "addr:postcode": "30307",
        "addr:street": "Edgewood Avenue Northeast",
        "name": "Inman Dry Giods",
        "shop": "clothes"
      }
    },
    {
      "type": "node",
      "id": 4392934436,
      "lat": 33.8255483,
      "lon": -84.3669111,
      "tags": {
        "name": "Authentic",
        "shop": "shoes"
      }
    },
    {
      "type": "node",
      "id": 4392934437,
      "lat": 33.826252,
      "lon": -84.3663386,
      "tags": {
        "brand": "Great Clips",
        "brand:wikidata": "Q5598967",
        "name": "Great Clips",
        "shop": "hairdresser"
      }
    },
    {
      "type": "node",
      "id": 4392934440,
      "lat": 33.8275516,
      "lon": -84.365271,
      "tags": {
        "addr:city": "Atlanta",
        "addr:housenumber": "2625",
        "addr:postcode": "30324",
        "addr:state": "GA",
        "addr:street": "Piedmont Road",
        "brand": "Office Depot",
        "brand:wikidata": "Q1337797",
        "fixme:atp": "check if location still exists; no corresponding ATP location found",
        "name": "Office Depot",
        "shop": "stationery"
      }
    },
    {
      "type": "node",
      "id": 4392934441,
      "lat": 33.8272312,
      "lon": -84.3652498,
      "tags": {
        "addr:city": "Atlanta",
        "addr:housenumber": "2625",
        "addr:postcode": "30324",
        "addr:state": "GA",
        "addr:street": "Piedmont Road Northeast",
        "brand": "Ross",
        "brand:wikidata": "Q3442791",
        "name": "Ross",
        "official_name": "Ross Dress for Less",
        "opening_hours": "Mo-Sa 09:30-22:00; Su 10:00-22:00",
        "phone": "+1 404-995-8545",
        "ref": "704",
        "shop": "department_store"
      }
    },
    {
      "type": "node",
      "id": 4550913553,
      "lat": 33.856853,
      "lon": -84.3834543,
      "tags": {
        "addr:city": "Atlanta",
        "addr:housenumber": "3716",
        "addr:postcode": "30342",
        "addr:state": "GA",
        "addr:street": "Roswell Road",
        "name": "Sprong Children's Shoes",
        "phone": "+1-404-846-8506",
        "shop": "shoes",
        "website": "https://sprongshoes.com/"
      }
    },
    {
      "type": "node",
      "id": 4552165302,
      "lat": 33.7765836,
      "lon": -84.4662074,
      "tags": {
        "addr:city": "Atlanta",
        "addr:housenumber": "2473",
        "addr:postcode": "30318",
        "addr:state": "GA",
        "addr:street": "Donald Lee Hollowell Parkway Northwest",
        "beauty": "hair",
        "name": "Ebony Beauty Supply",
        "operator": "Ki Lim",
        "phone": "+1-404-799-7272",
        "shop": "beauty",
        "website": "http://ebonybeautyatlantaga.com"
      }
    },
    {
      "type": "node",
      "id": 4563402086,
      "lat": 33.8245373,
      "lon": -84.3485527,
      "tags": {
        "addr:city": "Atlanta",
        "addr:housenumber": "2589",
        "addr:postcode": "30324",
        "addr:state": "GA",
        "addr:street": "Chantilly Drive Northeast",
        "name": "Quality Health Spa",
        "phone": "+1-678-974-2697",
        "shop": "massage",
        "spa": "inside",
        "website": "http://qualityhealthspa.com"
      }
    },
    {
      "type": "node",
      "id": 4643468354,
      "lat": 33.8369538,
      "lon": -84.3821972,
      "tags": {
        "addr:city": "Atlanta",
        "addr:housenumber": "3002",
        "addr:postcode": "30305",
        "addr:state": "GA",
        "addr:street": "Peachtree Road",
        "name": "Roock Autohaus",
        "shop": "car_repair"
      }
    },
    {
      "type": "node",
      "id": 4643468362,
      "lat": 33.835967,
      "lon": -84.3825859,
      "tags": {
        "addr:city": "Atlanta",
        "addr:housenumber": "2964",
        "addr:postcode": "30305",
        "addr:state": "GA",
        "addr:street": "Peachtree Road",
        "name": "HM Solutions Inc",
        "shop": "computer"
      }
    },
    {
      "type": "node",
      "id": 4664879360,
      "lat": 33.8342861,
      "lon": -84.383756,
      "tags": {
        "addr:city": "Atlanta",
        "addr:housenumber": "2900",
        "addr:postcode": "30305",
        "addr:state": "GA",
        "addr:street": "Peachtree Road",
        "brand": "Great Clips",
        "brand:wikidata": "Q5598967",
        "name": "Great Clips",
        "shop": "hairdresser"
      }
    },
    {
      "type": "node",
      "id": 4664879362,
      "lat": 33.8339143,
      "lon": -84.3840887,
      "tags": {
        "brand": "T-Mobile",
        "brand:wikidata": "Q3511885",
        "name": "T-Mobile",
        "shop": "mobile_phone"
      }
    },